Date/Time,a_x,a_y,a_z,w_x,w_y,w_z,Lat ,Long,Polar_angle,B_x,B_y,B_z,B_total,B_theoretical,Pitch,Roll,Yaw,North_compass_only,Pitch_accel_only,Roll_accel_only,Yaw_accel_only,Pitch_gyro_only,Roll_gyro_only,Yaw_gyro_only
2021-04-22 02:00:49.008719,-0.0012341781985014677,0.0036418887320905924,0.019495747983455658,0.2639918327331543,0.2280617207288742,0.07818388193845749,-4.999482467716832,15.684595400565284,1.6490969543211134,-2.0554311275482178,24.510700225830078,16.051280975341797,29.37078214195138,26.13472196695004,28.815557240286633,107.46978225029488,355.9902136505653,357.8057366288929,28.033751589772173,108.63513546610412,357.334335328512,27.905289391862574,108.95090877181215,357.52261034675706
2021-04-22 02:00:49.508660,-0.0014810138382017612,0.005098644178360701,0.01803356595337391,0.2636864185333252,0.22989431023597717,0.08154363930225372,-4.999482467716832,15.684595400565284,1.6490969543211134,-2.3524832725524902,24.335826873779297,15.307032585144043,28.84565641029615,26.13472196695004,28.802982862024642,107.57362844643575,356.0477387844156,357.8098183072522,28.024580353264138,108.68541931877375,357.34005134307364,27.864687332341433,109.07746534694331,357.57435735401293
2021-04-22 02:00:50.008567,-0.0019746851176023483,0.0033990959636867046,0.019252052530646324,0.2627701163291931,0.2289780229330063,0.07910017669200897,-4.948976633899172,15.720752714484037,1.6483358501517182,-2.6471450328826904,24.305028915405273,15.331720352172852,28.85833426171776,26.13017405903607,28.78806231378275,107.6700092458138,355.96949555237853,357.7539313515856,28.023137475801974,108.7663570604384,357.2254254008752,27.859969379172245,109.16330716443203,357.46127546145374
2021-04-22 02:00:50.508761,-0.0007405069191008806,0.004127473570406437,0.017058778554201126,0.2630755305290222,0.22928345203399658,0.07910017669200897,-4.948976633899172,15.720752714484037,1.6483358501517182,-2.5066494941711426,24.25390625,15.328516006469727,28.801018437392386,26.13017405903607,28.958181835440257,107.55359550160011,355.7113741659073,357.4998841729543,28.1631187877468,108.69022777194944,357.00858653152113,28.034163108669667,109.00341243596203,357.1944114328449
2021-04-22 02:00:51.008547,-0.0017278495943173766,0.0038846812676638365,0.01730247773230076,0.2630755305290222,0.23203235864639282,0.08062733709812164,-4.898468238760574,15.756904905760916,1.6475746910731164,-2.5995798110961914,24.63392448425293,15.490321159362793,29.215374382511985,26.125669115377384,28.92245311589192,107.76231925244653,355.7029896818143,357.45780529846854,28.182729968401198,108.81800695094203,356.99142674844853,28.02512164575586,109.20921969603286,357.2225507450083
2021-04-22 02:00:51.508528,-0.0012341781985014677,0.004127473570406437,0.019495747983455658,0.2636864185333252,0.23142147064208984,0.08093277364969254,-4.898468238760574,15.756904905760916,1.6475746910731164,-2.6506283283233643,24.272062301635742,15.686403274536133,29.02106280963492,26.125669115377384,28.919905455331506,107.94926836021895,355.68354242569995,357.4234039834967,28.134886200812552,109.01136277615593,356.917391339827,27.977960897084216,109.39327280359718,357.1417773547705
2021-04-22 02:00:52.008517,-0.0012341781985014677,0.004127473570406437,0.017546173185110092,0.2630755305290222,0.22989431023597717,0.07910017669200897,-4.847957282301038,15.793050266848622,1.6468134721610406,-2.8499841690063477,24.872617721557617,15.865042686462402,29.638979427935823,26.12120714946565,29.017857198218657,107.90434620604778,355.57342440835373,357.379741785784,28.179560760626313,109.09399440473474,356.8868610345673,28.05118052498675,109.40961061609187,357.0737010727564
2021-04-22 02:00:52.508631,-0.0014810138382017612,0.004370266571640968,0.017789868637919426,0.2649081349372864,0.23019975423812866,0.07971104234457016,-4.847957282301038,15.793050266848622,1.6468134721610406,-2.666485071182251,24.983701705932617,16.07732582092285,29.82911160457131,26.12120714946565,28.999111744041556,108.01149821374693,355.5781803544502,357.3144402681202,28.18229454384161,109.15977595663114,356.8194492018934,28.02046345674191,109.55251866409604,357.05175503462294
2021-04-22 02:00:53.008744,-0.0014810138382017612,0.005341436713933945,0.019983140751719475,0.2636864185333252,0.2289780229330063,0.07971104234457016,-4.7974441914073855,15.829190505294452,1.646052205500595,-2.737680196762085,24.78616714477539,15.454405784606934,29.33747829558257,26.116788273883078,28.96117345829672,108.09477188010773,355.62292492370295,357.3987572458767,28.21569758397756,109.19662482720335,356.91269003524394,28.07971364024448,109.52340156766428,357.1067318675826
2021-04-22 02:00:53.508530,-0.0014810138382017612,0.0036418887320905924,0.01876465603709221,0.26612985134124756,0.228672593832016,0.08062733709812164,-4.7974441914073855,15.829190505294452,1.646052205500595,-2.6567270755767822,24.86945343017578,16.2036075592041,29.801087406376315,26.116788273883078,29.058319238861813,108.02752866772896,355.5706368373987,357.354603914874,28.27017517279758,109.15043908803572,356.86976549796157,28.102427434329357,109.55616598511283,357.1108598631622
2021-04-22 02:00:54.008594,-0.0014810138382017612,0.005098644178360701,0.01730247773230076,0.26215922832489014,0.23142147064208984,0.08062733709812164,-4.746928539192794,15.865323913551112,1.6452908788656193,-2.7344272136688232,24.843765258789062,15.841870307922363,29.591461932011725,26.112412459135886,29.008264197529375,108.21494222836493,355.6244847681546,357.3476198330043,28.24521424647577,109.31312736387626,356.9079148792405,28.113357444548672,109.63127757541545,357.09627719584086
2021-04-22 02:00:54.508774,-0.0012341781985014677,0.0038846812676638365,0.016815081238746643,0.2649081349372864,0.23142147064208984,0.07848931103944778,-4.746928539192794,15.865323913551112,1.6452908788656193,-2.6408627033233643,24.913583755493164,15.582978248596191,29.50406789674941,26.112412459135886,28.80888414546753,108.5445808180881,355.6487754821641,357.3971566337334,28.090271405154027,109.62356629184251,356.9357841854882,27.9617477355419,109.92976367233419,357.11520578446505
2021-04-22 02:00:55.008613,-0.0014810138382017612,0.0031563034281134605,0.01827726513147354,0.26521357893943787,0.2326432168483734,0.07940560579299927,-4.696410325657264,15.901450491618602,1.644529492185527,-2.5359106063842773,24.63837242126465,14.985769271850586,28.94915402635538,26.108079747062522,29.024581519456536,108.15319048807885,355.5632670632843,357.3480249485994,28.227703348991145,109.32487528924868,356.87348581662513,28.06184074273385,109.72071207240761,357.1089854031219
2021-04-22 02:00:55.508622,-0.0012341781985014677,0.004613059107214212,0.016327690333127975,0.2649081349372864,0.23142147064208984,0.08062733709812164,-4.696410325657264,15.901450491618602,1.644529492185527,-2.527204990386963,24.67814826965332,14.941742897033691,28.959513944185712,26.108079747062522,28.838895996680566,108.30946521628874,355.57601945335153,357.34477143067693,28.10649993462198,109.39168819970975,356.8306596767555,27.975129783673246,109.70675799593327,357.017717213781
2021-04-22 02:00:56.008560,-0.0007405069191008806,0.0026707183569669724,0.01827726513147354,0.26215922832489014,0.23019975423812866,0.08001647144556046,-4.645889977687618,15.937573654591509,1.643768062400521,-2.6470892429351807,24.980667114257812,15.450678825378418,29.491766428927615,26.103790274578692,28.876424471075204,108.31602902808112,355.522530107527,357.2982947681394,28.0795719138192,109.47194975264657,356.8458269655812,27.917153430450885,109.8636611015468,357.077485211
2021-04-22 02:00:56.508537,-0.0012341781985014677,0.0038846812676638365,0.018520960584282875,0.2646026909351349,0.23172691464424133,0.07910017669200897,-4.645889977687618,15.937573654591509,1.643768062400521,-2.617967367172241,24.904024124145508,15.522296905517578,29.461939378368164,26.103790274578692,29.061539673055474,108.16285520575441,355.4983405656946,357.19765406515336,28.25327216214909,109.31482125079043,356.7663880235525,28.12262601125238,109.6299934998515,356.9533241112768
2021-04-22 02:00:57.008650,-0.0019746851176023483,0.005098644178360701,0.016815081238746643,0.26215922832489014,0.22928345203399658,0.08001647144556046,-4.595367068397034,15.973689987375243,1.643006572429928,-2.6257996559143066,24.957698822021484,15.17983627319336,29.32931952167812,26.09954398570499,29.019288122849776,108.27544404403291,355.5633635397063,357.3271100555872,28.240566302745574,109.40677608758631,356.8810024398067,28.081486074334098,109.79062588875185,357.10826716604197
2021-04-22 02:00:57.508657,-0.0012341781985014677,0.004370266571640968,0.01827726513147354,0.26551899313926697,0.23203235864639282,0.08062733709812164,-4.595367068397034,15.973689987375243,1.643006572429928,-2.8791656494140625,25.148300170898438,15.550939559936523,29.707883087139937,26.09954398570499,29.09758258130563,108.17334637631956,355.39411956292304,357.27328581704995,28.302418788321916,109.32855676121132,356.75196479845954,28.165552042638616,109.65530618091556,356.94479982174926
2021-04-22 02:00:58.008662,-0.0007405069191008806,0.004370266571640968,0.01827726513147354,0.2627701163291931,0.23233777284622192,0.07940560579299927,-4.544841597785512,16.009799489969808,1.64224502220332,-2.6526811122894287,24.413503646850586,16.384977340698242,29.521574481275195,26.095340921477117,29.001389612129756,108.25348498585132,355.3111084319585,357.0987407596971,28.271075050220727,109.304760382143,356.58786715577247,28.136224917889873,109.62916021677275,356.77996387830154
2021-04-22 02:00:58.508599,-0.0009873425588011742,0.004613059107214212,0.017546173185110092,0.2624646723270416,0.23019975423812866,0.07879474759101868,-4.544841597785512,16.009799489969808,1.64224502220332,-2.84454345703125,24.307039260864258,15.866673469543457,29.166331824507,26.095340921477117,29.090653354392654,108.20612445414645,355.19325095650896,356.9790342239732,28.316620459153665,109.34352170568282,356.52223821591537,28.18659756301872,109.65786067166515,356.7060659272371
2021-04-22 02:00:59.008679,-0.0014810138382017612,0.004613059107214212,0.016815081238746643,0.26612985134124756,0.22989431023597717,0.08154363930225372,-4.4943139927398725,16.04590557746979,1.6414834286618365,-2.6747872829437256,24.15283203125,14.936112403869629,28.523696041708927,26.091181215089126,29.10728828011622,108.33629419934854,355.18485366581126,356.94353687708303,28.36795616095548,109.4484607320909,356.48423226860905,28.232976255030398,109.76919958532552,356.67414269027347
2021-04-22 02:00:59.508717,-0.0012341781985014677,0.0048558516427874565,0.01803356595337391,0.2639918327331543,0.22989431023597717,0.08093277364969254,-4.4943139927398725,16.04590557746979,1.6414834286618365,-2.5455713272094727,24.239408493041992,15.336257934570312,28.79634811760231,26.091181215089126,29.026053425222674,108.47282285066794,355.2268478032626,356.91466694812186,28.257908153048238,109.55996357029136,356.4643346468963,28.094098018636526,109.95271993813459,356.6993614562365
2021-04-22 02:01:00.008678,-0.0009873425588011742,0.005584229249507189,0.019252052530646324,0.2624646723270416,0.23111605644226074,0.07910017669200897,-4.443784253260119,16.082004834780598,1.6407217820258375,-2.7621006965637207,24.806974411010742,15.525948524475098,29.395071989555493,26.087064851917052,29.01551102823876,108.35798004996334,355.1271897937434,356.86027921897806,28.19257397854248,109.5207992655905,356.41706803029257,28.062861856014766,109.83382683525218,356.6014854857604
2021-04-22 02:01:00.508577,-0.0012341781985014677,0.004613059107214212,0.019252052530646324,0.2633809745311737,0.22958888113498688,0.07940560579299927,-4.443784253260119,16.082004834780598,1.6407217820258375,-3.188194751739502,24.915817260742188,15.460782051086426,29.495733880968512,26.087064851917052,29.092296014888042,108.48921530467597,354.98442475282496,356.7863936476315,28.292028363047034,109.62167432944241,356.3128128765751,28.15926485350762,109.93630016336988,356.49710568109066
2021-04-22 02:01:01.008743,-0.0007405069191008806,0.0033990959636867046,0.017546173185110092,0.2642972767353058,0.2326432168483734,0.07848931103944778,-4.393252379346248,16.11809896944953,1.6399600870802093,-3.3709664344787598,24.702449798583984,15.697797775268555,29.461759888831672,26.082991896751007,29.095222750947393,108.67223022348645,355.0000701548925,356.7554063600276,28.3648313494102,109.75801173546505,356.2669601091295,28.215210932999195,110.11546285548849,356.4789260653976
2021-04-22 02:01:01.573787,-0.0009873425588011742,0.0031563034281134605,0.016815081238746643,0.2627701163291931,0.23172691464424133,0.08001647144556046,-4.393252379346248,16.11809896944953,1.6399600870802093,-3.2120702266693115,24.484458923339844,15.542160034179688,29.178157283108607,26.082991896751007,28.614105933358985,110.07238485239321,355.7887388648624,357.4885665494996,27.802836554312382,111.12747832443094,357.0436473866347,27.65150859060887,111.47464317956435,357.24515162752846
2021-04-22 02:01:02.126457,-0.0012341781985014677,0.004370266571640968,0.01730247773230076,0.2649081349372864,0.23019975423812866,0.08032190799713135,-4.34271794411144,16.15418627392929,1.6391983315981415,-3.3325071334838867,24.852279663085938,15.34328842163086,29.39656285752311,26.078962323491446,28.245738463494565,111.07345152809614,356.2814742611158,358.02602559755144,27.437780018648123,112.1640688140071,357.5915348528887,27.271738119925114,112.53354789715894,357.8080223943873
2021-04-22 02:01:02.679564,-0.0009873425588011742,0.004613059107214212,0.01876465603709221,0.26521357893943787,0.23142147064208984,0.08062733709812164,-4.34271794411144,16.15418627392929,1.6391983315981415,-3.061413526535034,24.57478904724121,15.55410385131836,29.24419012580883,26.078962323491446,27.963497971516713,111.71177368716884,356.4688205870771,358.2513987882734,27.114136627468948,112.8564655807388,357.7398690593016,26.95074142704932,113.2142445498424,357.94541570496693
2021-04-22 02:01:03.223651,-0.0017278495943173766,0.004613059107214212,0.019008353352546692,0.26582443714141846,0.23081061244010925,0.07940560579299927,-4.2921813744425155,16.19027016331447,1.6384365325219392,-2.876516819000244,24.776081085205078,15.14841079711914,29.18223590866409,26.074976260343426,27.75070684301955,112.31387535307299,356.93252084916884,358.6426365062434,26.822019681951257,113.51422645818937,358.1885064063959,26.636706404485057,113.91052769421185,358.4139294361545
2021-04-22 02:01:03.723759,-0.0017278495943173766,0.0038846812676638365,0.016083991155028343,0.2642972767353058,0.23050519824028015,0.07818388193845749,-4.2921813744425155,16.19027016331447,1.6384365325219392,-2.839822292327881,24.62869644165039,15.60201358795166,29.292663024477534,26.074976260343426,28.243125916137036,111.29126626072784,356.45845364057755,358.16915818802454,27.40893612978316,112.4426312491169,357.74418168343226,27.239965787453507,112.81834629498096,357.9594852543269
2021-04-22 02:01:04.223743,-0.0009873425588011742,0.004127473570406437,0.018520960584282875,0.26093751192092896,0.23111605644226074,0.08001647144556046,-4.241642670339475,16.226347222510476,1.6376746800711703,-2.877553701400757,24.523880004882812,15.832524299621582,29.33206149414739,26.071033693805134,28.35223818812799,111.08732364230043,356.2305394060409,357.99310173787444,27.606200530749593,112.14096911423411,357.5357881295435,27.46565572819824,112.45252136303507,357.71459116951365
2021-04-22 02:01:04.723617,-0.0014810138382017612,0.0038846812676638365,0.017789868637919426,0.2646026909351349,0.22958888113498688,0.07848931103944778,-4.241642670339475,16.226347222510476,1.6376746800711703,-3.3001949787139893,24.430461883544922,15.590465545654297,29.168499630099316,26.071033693805134,28.565802835548656,110.86922887191275,356.0906208464591,357.8875857739249,27.681277970106372,112.06389725963969,357.4404410366077,27.5265024684193,112.40580969930136,357.6385801286747
2021-04-22 02:01:05.223574,-0.0017278495943173766,0.004127473570406437,0.01827726513147354,0.26215922832489014,0.233254075050354,0.07971104234457016,-4.19110183180232,16.2624208666119,1.6369127838870081,-3.4357190132141113,24.776199340820312,15.676752090454102,29.51990472578431,26.06713471116071,28.65314900220207,110.76076546789295,355.90064639177115,357.76850846937833,27.834605471689404,111.89733626653975,357.28102036595476,27.69329056530913,112.2127202514651,357.46174461007234
2021-04-22 02:01:05.723500,-0.0012341781985014677,0.0048558516427874565,0.01657138578593731,0.2636864185333252,0.23081061244010925,0.0778784453868866,-4.19110183180232,16.2624208666119,1.6369127838870081,-3.311398506164551,24.183979034423828,16.04694938659668,29.211894608533623,26.06713471116071,28.756926896451244,110.5146737520974,355.7849045674171,357.54474293443224,27.861400303803364,111.74824689733671,357.0280342145223,27.716485887730496,112.07320680747841,357.21539163954105
2021-04-22 02:01:06.223700,-0.0009873425588011742,0.004613059107214212,0.017058778554201126,0.2636864185333252,0.23233777284622192,0.08001647144556046,-4.1405588588310485,16.29848768052415,1.636150834188654,-3.300429105758667,24.130544662475586,15.857667922973633,29.06271924554161,26.063279299465812,28.9478306837531,110.3586039295626,355.5047955213471,357.30942712271286,28.09825589629377,111.50596642709803,356.83066778760514,27.928843299215362,111.89905064402143,357.0578403062866
2021-04-22 02:01:06.723627,-0.0014810138382017612,0.004127473570406437,0.017058778554201126,0.2624646723270416,0.22958888113498688,0.07726757973432541,-4.1405588588310485,16.29848768052415,1.636150834188654,-3.553692102432251,24.306900024414062,15.285274505615234,28.932572182019364,26.063279299465812,29.034140369199967,110.30056098199583,355.50928765138684,357.26488617847474,28.1742793168506,111.51826076760405,356.80938982734983,28.031168070718614,111.83855565854263,356.99470758712766
2021-04-22 02:01:07.223561,-0.0007405069191008806,0.0033990959636867046,0.01827726513147354,0.2649081349372864,0.23294863104820251,0.08062733709812164,-4.090013324538838,16.334551079341818,1.6353888333161322,-3.434823989868164,23.964574813842773,15.595850944519043,28.798080292500345,26.0594675080161,29.089324882599087,110.30917385053922,355.399509009065,357.1635671523267,28.21125113082788,111.51227069170194,356.7100575324767,28.046136430284697,111.89275320960668,356.9311742346853
2021-04-22 02:01:07.723503,-0.0012341781985014677,0.0026707183569669724,0.01876465603709221,0.2642972767353058,0.23050519824028015,0.08062733709812164,-4.090013324538838,16.334551079341818,1.6353888333161322,-3.268242359161377,24.29979705810547,15.387661933898926,28.947222405185787,26.0594675080161,29.286485123180675,110.05699643619317,355.3134375264654,357.1440526615378,28.432952241097322,111.30039139345898,356.6882995379888,28.29673777847976,111.61068688745266,356.86850404739926
2021-04-22 02:01:08.223695,-0.0009873425588011742,0.0048558516427874565,0.017789868637919426,0.2649081349372864,0.23081061244010925,0.08032190799713135,-4.039466082699336,16.370607647970317,1.6346267860916524,-3.0950186252593994,23.898330688476562,14.823846817016602,28.292327306901715,26.055699397474168,29.28614019862759,110.04253692572027,355.20988545534567,356.883126842082,28.44758421384678,111.1909649327662,356.41369989325807,28.311545628600346,111.50378076656362,356.5959876103654
2021-04-22 02:01:08.723737,-0.0017278495943173766,0.0036418887320905924,0.017789868637919426,0.2624646723270416,0.23111605644226074,0.08062733709812164,-4.039466082699336,16.370607647970317,1.6346267860916524,-3.5062379837036133,24.44725799560547,16.05069923400879,29.454831084266495,26.055699397474168,29.37827262034189,109.79249736058443,355.1318317610581,356.9634007747367,28.535329946566645,111.03242941194104,356.4608947928756,28.402631323824345,111.33808037729911,356.63811493650553
2021-04-22 02:01:09.223540,-0.0017278495943173766,0.004370266571640968,0.021445322781801224,0.2649081349372864,0.23081061244010925,0.08093277364969254,-3.988917133312541,16.406660801504227,1.6338647021574142,-3.2498273849487305,24.242292404174805,15.77459716796875,29.104776839088835,26.051975050509345,29.45901911670978,109.66199293611301,355.08606351720346,356.83494604734653,28.665282833262598,110.77437120471961,356.3749044187724,28.53475962577095,111.07983092478094,356.5524880565323
2021-04-22 02:01:09.723674,-0.0014810138382017612,0.0036418887320905924,0.015352901071310043,0.26735159754753113,0.23142147064208984,0.08001647144556046,-3.988917133312541,16.406660801504227,1.6338647021574142,-3.8652384281158447,24.47350311279297,15.454486846923828,29.201602463217874,26.051975050509345,29.63498528029682,109.70989988295148,355.03549236970184,356.76603840324435,28.81054729653043,110.83358894482363,356.3527848511453,28.6380645294201,111.23516308688536,356.5874543562145
2021-04-22 02:01:10.223577,-0.0014810138382017612,0.004127473570406437,0.018520960584282875,0.26704615354537964,0.2326432168483734,0.07910017669200897,-3.9383656226048074,16.442708832396264,1.6331025619847335,-3.701720714569092,24.136028289794922,15.674409866333008,29.01616312526948,26.048294407230994,29.687325019906627,109.81890970210488,355.06255059098567,356.81434598336637,28.852040695738257,110.97100552073512,356.372231253486,28.688659155696968,111.35592766160036,356.59535176244236
2021-04-22 02:01:10.723549,-0.0012341781985014677,0.0033990959636867046,0.01827726513147354,0.2642972767353058,0.23233777284622192,0.07971104234457016,-3.9383656226048074,16.442708832396264,1.6331025619847335,-3.5202224254608154,24.441377639770508,15.142358779907227,28.96660035755015,26.048294407230994,29.69453769967016,109.78367958636595,354.92736108363044,356.75136544935987,28.86269579084348,110.97631257772022,356.2705442508965,28.693563231521036,111.37211520993328,356.4982960549969
2021-04-22 02:01:11.223710,-0.0012341781985014677,0.0038846812676638365,0.01730247773230076,0.26521357893943787,0.233254075050354,0.0775730162858963,-3.887812404349781,16.47875174064642,1.6323403801074887,-3.3006255626678467,24.73670768737793,15.78972053527832,29.531578198564137,26.044657573507585,29.62422773235405,109.68783154174317,354.90354336022097,356.59452744398686,28.824634561693582,110.8364439638967,356.10963481244795,28.647797548987366,111.2456064461263,356.3439662231532
2021-04-22 02:01:11.723624,-0.0012341781985014677,0.0031563034281134605,0.019495747983455658,0.2642972767353058,0.23142147064208984,0.07971104234457016,-3.887812404349781,16.47875174064642,1.6323403801074887,-3.085634708404541,24.752277374267578,15.60181713104248,29.421303073740294,26.044657573507585,29.609204731274605,109.5842790437366,354.9025363342052,356.71015763743674,28.785470256992728,110.7774038087111,356.1928231014441,28.655280021223117,111.08320503823091,356.3720122605457
2021-04-22 02:01:12.223753,-0.0017278495943173766,0.004127473570406437,0.019008353352546692,0.26643529534339905,0.2326432168483734,0.08184906840324402,-3.837257051660639,16.5147895262547,1.631578149154582,-2.9884772300720215,24.351430892944336,15.673632621765137,29.113329288327073,26.04106454892549,29.583045106753456,109.4924198295891,354.66264088064736,356.527968744629,28.71428261036827,110.7050652752115,356.00516834975303,28.577844459055388,111.0241717132345,356.1875331199319
2021-04-22 02:01:12.723668,-0.0014810138382017612,0.0036418887320905924,0.016083991155028343,0.2630755305290222,0.23081061244010925,0.07971104234457016,-3.837257051660639,16.5147895262547,1.631578149154582,-3.2957870960235596,24.326087951660156,15.66661548614502,29.12153169743892,26.04106454892549,29.684289000820556,109.33317396909025,354.6118938557746,356.40631218989705,28.783018219080695,110.53828571605813,355.90908039473567,28.64731772819817,110.85587585208538,356.0927518654801
2021-04-22 02:01:13.223861,-0.0012341781985014677,0.0036418887320905924,0.017789868637919426,0.2630755305290222,0.23142147064208984,0.08093277364969254,-3.7866995645373818,16.5508221892211,1.6308158690566334,-3.91489577293396,23.99192237854004,15.88604736328125,29.03971847589507,26.0375153682592,29.639783488188755,109.42774476833824,354.570139201831,356.49089639880486,28.818169787644166,110.58038700210209,355.9377629203815,28.67910372104812,110.91005291258192,356.1307755285896
2021-04-22 02:01:13.723575,-0.0009873425588011742,0.0038846812676638365,0.018520960584282875,0.26735159754753113,0.2283671498298645,0.07879474759101868,-3.7866995645373818,16.5508221892211,1.6308158690566334,-3.5138001441955566,24.094654083251953,15.990478515625,29.130646233881997,26.0375153682592,29.904525035513032,108.88770903142202,354.27755353458156,356.03631870812336,29.098248524749707,110.02654745287326,355.58721541406163,28.963789420748835,110.34323600393007,355.7761926611307
2021-04-22 02:01:14.223696,-0.0009873425588011742,0.004613059107214212,0.017058778554201126,0.26521357893943787,0.23050519824028015,0.07910017669200897,-3.7361403698668316,16.58685143709292,1.6300535519024524,-3.781146764755249,23.950647354125977,15.416825294494629,28.733414027909912,26.034010121550413,29.84185463478358,108.86012189736434,354.09800920564305,355.92875816973446,29.039512312982183,109.99139246921521,355.3980213084864,28.905927473195074,110.30828592594712,355.5853968761951
2021-04-22 02:01:14.723759,-0.0012341781985014677,0.0033990959636867046,0.019983140751719475,0.2627701163291931,0.23019975423812866,0.07910017669200897,-3.7361403698668316,16.58685143709292,1.6300535519024524,-3.5982964038848877,24.28525733947754,14.761157989501953,28.646347869246718,26.034010121550413,29.886373807793724,108.76576966416978,354.0072210505348,355.81990629870563,29.068533786765567,109.949120428442,355.27979756414265,28.90457509573941,110.33876906021288,355.5098874273733
2021-04-22 02:01:15.223542,-0.0012341781985014677,0.004370266571640968,0.01876465603709221,0.2646026909351349,0.22989431023597717,0.0827653706073761,-3.685579040762166,16.62287556232286,1.629291185464762,-3.4009525775909424,24.161762237548828,15.081320762634277,28.684551047634102,26.030548786040445,29.859503843598894,108.7505724932665,353.95894356593385,355.73738651447445,29.108411846234688,109.88565431067424,355.22625101548385,28.937148267891203,110.29361467960993,355.4641759594662
2021-04-22 02:01:15.723629,-0.0009873425588011742,0.0036418887320905924,0.017789868637919426,0.2649081349372864,0.23508667945861816,0.07910017669200897,-3.685579040762166,16.62287556232286,1.629291185464762,-3.105743408203125,23.830087661743164,15.580199241638184,28.640204756480077,26.030548786040445,29.716336248406257,108.75999815432112,353.88532565262534,355.682202854849,28.972497911940604,109.89890487766407,355.1995279003562,28.80657554152807,110.2908211322394,355.4304749523277
2021-04-22 02:01:16.223553,-0.0019746851176023483,0.004127473570406437,0.020226839929819107,0.2646026909351349,0.228672593832016,0.08093277364969254,-3.635016004110208,16.658894564910923,1.6285287769759749,-3.103731155395508,24.147790908813477,15.705413818359375,28.97255556671971,26.027131428159084,29.668091207203872,108.60273304868157,353.8707790572405,355.6965701577681,28.90480049198202,109.75629052779419,355.2003833815497,28.767199500962946,110.08340877771361,355.3934911855194
2021-04-22 02:01:16.723622,-0.0009873425588011742,0.0048558516427874565,0.01827726513147354,0.26521357893943787,0.23050519824028015,0.08032190799713135,-3.635016004110208,16.658894564910923,1.6285287769759749,-3.120748996734619,24.253000259399414,16.28394317626953,29.378800201012687,26.027131428159084,29.54180442454492,108.51597598584408,353.77182455720583,355.5813905433601,28.738680046083555,109.69488712715578,355.0573114090055,28.573116260602447,110.09482885400588,355.295716173777
2021-04-22 02:01:17.223643,-0.0014810138382017612,0.0038846812676638365,0.017058778554201126,0.26215922832489014,0.23050519824028015,0.07879474759101868,-3.5844512599109573,16.6949101524044,1.6277663312235882,-3.2734665870666504,24.5658016204834,16.839570999145508,29.96273258881521,26.023758101607626,29.487842515007234,108.65486788261629,353.887585591467,355.6828487346124,28.701185722634772,109.75457615031253,355.19607182463614,28.557942995361262,110.09576458992217,355.39877006797417
2021-04-22 02:01:17.723547,-0.0017278495943173766,0.004613059107214212,0.017789868637919426,0.26215922832489014,0.2283671498298645,0.07818388193845749,-3.5844512599109573,16.6949101524044,1.6277663312235882,-3.749417543411255,24.162229537963867,16.137332916259766,29.296501187177533,26.023758101607626,29.44235345513495,108.88221072914016,353.9593047121862,355.7187418055876,28.668069550443963,110.01351545193688,355.26544562914916,28.502165963051645,110.40912000866402,355.49810321662096
2021-04-22 02:01:18.223594,-0.0012341781985014677,0.005098644178360701,0.01730247773230076,0.26521357893943787,0.23050519824028015,0.08123820275068283,-3.533884381277591,16.730920617256,1.627003835980197,-3.462934970855713,24.386289596557617,15.247177124023438,28.96824898316937,26.02042878486991,29.474185551761796,108.82078000774506,353.7961810117861,355.6501953077379,28.617790820416207,110.00464303620504,355.1376224808138,28.47673033858252,110.34030585277614,355.33416971191735
2021-04-22 02:01:18.723683,-0.0017278495943173766,0.004127473570406437,0.018520960584282875,0.2633809745311737,0.23142147064208984,0.0824599340558052,-3.533884381277591,16.730920617256,1.627003835980197,-3.6332874298095703,23.971261978149414,15.429391860961914,28.73827259199484,26.02042878486991,29.514726139580404,108.72659852927976,353.750674449554,355.47786451233657,28.710126440258318,109.85379147819613,355.02147041822263,28.57911487424101,110.17191436897865,355.2068712074876
2021-04-22 02:01:19.223732,-0.0014810138382017612,0.0048558516427874565,0.017789868637919426,0.26674073934555054,0.23019975423812866,0.07848931103944778,-3.483316008540344,16.766927667013015,1.6262413069860275,-3.7826621532440186,24.07565689086914,15.338892936706543,28.796309211706024,26.017143578641576,29.490523364256465,108.77262717409647,353.52471386256343,355.45436951536533,28.697647684644704,109.87552514013511,354.94888813234707,28.531470889685586,110.27238645166953,355.18065139192436
2021-04-22 02:01:19.723560,-0.0017278495943173766,0.005098644178360701,0.015352901071310043,0.2630755305290222,0.2277562916278839,0.07848931103944778,-3.483316008540344,16.766927667013015,1.6262413069860275,-4.0425872802734375,23.959924697875977,15.513026237487793,28.82836253573034,26.017143578641576,29.37916737512316,108.88069442714442,353.48195815901965,355.27250676409045,28.60962532926346,109.99165201640366,354.73946386022385,28.47585778191605,110.31170102053213,354.9281060011368
2021-04-22 02:01:20.223762,-0.0009873425588011742,0.004370266571640968,0.01876465603709221,0.2642972767353058,0.23233777284622192,0.08001647144556046,-3.4327455013689807,16.802929594128152,1.6254787283627659,-3.8147287368774414,24.1617374420166,15.956639289855957,29.205411296187567,26.01390244618601,29.44277009667432,108.90657401390959,353.46662011546476,355.18570146304194,28.63641503873554,110.05858787026979,354.72488268700636,28.503783010337646,110.37287219473876,354.91158035843995
2021-04-22 02:01:20.723728,-0.0014810138382017612,0.0038846812676638365,0.017546173185110092,0.26154837012290955,0.22928345203399658,0.07818388193845749,-3.4327455013689807,16.802929594128152,1.6254787283627659,-3.7527308464050293,24.281274795532227,15.621773719787598,29.11534146552217,26.01390244618601,29.455026871139907,108.89330295635226,353.39434860319636,355.27169269091877,28.679120796521044,109.96545824093667,354.7846784318689,28.497840745759735,110.40028857406719,355.0405706153498
2021-04-22 02:01:21.223753,-0.0019746851176023483,0.004127473570406437,0.01803356595337391,0.26643529534339905,0.23142147064208984,0.07848931103944778,-3.382173500093737,16.838926398601412,1.624716110993862,-4.153591632843018,23.753511428833008,15.900178909301758,28.884205337864643,26.010705465557837,29.59684891906605,108.91285095775683,353.25536834085176,355.10146431312137,28.795374031289246,110.09930945810142,354.7120568724055,28.65573422880292,110.42973351957912,354.90871381342265
2021-04-22 02:01:21.723560,-0.0014810138382017612,0.004127473570406437,0.019008353352546692,0.2642972767353058,0.23203235864639282,0.07879474759101868,-3.382173500093737,16.838926398601412,1.624716110993862,-4.046400547027588,23.763063430786133,15.492461204528809,28.654369565153246,26.010705465557837,29.74189823137503,108.80496811981648,353.17473923836025,355.07874582328145,28.875280414389227,110.0370181328709,354.5264349557662,28.734178951420517,110.37335030798066,354.72426071290505
2021-04-22 02:01:22.223639,-0.0012341781985014677,0.0031563034281134605,0.019252052530646324,0.26704615354537964,0.23050519824028015,0.07971104234457016,-3.3315995778277894,16.874919787980087,1.6239534523656884,-3.920922040939331,23.66609001159668,15.077802658081055,28.33368276599701,26.00755265697739,29.76991566735042,108.96778616925124,353.15393192082746,355.02196475316384,28.973310704451833,110.10098968463723,354.53685398245824,28.841774921415727,110.4171864620738,354.7197276017303
2021-04-22 02:01:22.723628,-0.0014810138382017612,0.004127473570406437,0.016815081238746643,0.26704615354537964,0.2289780229330063,0.08032190799713135,-3.3315995778277894,16.874919787980087,1.6239534523656884,-4.006159782409668,23.52151870727539,15.270040512084961,28.32817141538823,26.00755265697739,29.745982684498696,108.9823071514267,353.21420748647915,355.05517868243714,28.94841466492714,110.11554481775853,354.52624541801674,28.81680716490475,110.4299657460109,354.7107454760849
2021-04-22 02:01:23.223664,-0.0019746851176023483,0.004370266571640968,0.01827726513147354,0.2624646723270416,0.2283671498298645,0.0778784453868866,-3.2810241614579603,16.910909762264176,1.623190759711126,-3.8522703647613525,23.736753463745117,15.281195640563965,28.491900466045177,26.004444080379468,29.797697461799448,108.8244614797077,353.13603767897564,354.90367526824934,28.977606893439773,109.99165884659284,354.41230078718803,28.809437390790304,110.39716034742733,354.64793121449605
2021-04-22 02:01:23.723658,-0.0012341781985014677,0.005341436713933945,0.019008353352546692,0.2646026909351349,0.2277562916278839,0.08032190799713135,-3.2810241614579603,16.910909762264176,1.623190759711126,-3.7501070499420166,23.877105712890625,15.807670593261719,28.880130361472578,26.004444080379468,29.708976719575567,108.83084770658166,353.10469991728996,354.9268377203853,28.921093908247087,109.98312111013033,354.43143812346875,28.78894340818568,110.29725517043755,354.61560307538076
2021-04-22 02:01:24.223624,-0.0007405069191008806,0.004370266571640968,0.01584029383957386,0.2639918327331543,0.23081061244010925,0.07910017669200897,-3.230446824097428,16.94689632145368,1.622428025659747,-3.8653857707977295,23.551807403564453,16.030385971069336,28.75068892240907,26.00137973545742,29.731690513660446,108.71420856612535,352.8541186327756,354.72136300514967,28.89266324582691,109.89806476439615,354.1958516655035,28.757743104057063,110.21737610809424,354.3825412260875
2021-04-22 02:01:24.723838,-0.0017278495943173766,0.004613059107214212,0.019252052530646324,0.2633809745311737,0.22958888113498688,0.07818388193845749,-3.230446824097428,16.94689632145368,1.622428025659747,-4.025944232940674,23.71515464782715,16.465200424194336,29.149950462153367,26.00137973545742,29.668456622324467,108.79496189268241,352.8018873224189,354.55766514197245,28.90629971850484,109.88717744285916,354.0461330651232,28.77382819955244,110.2058399185861,354.23175839685706
2021-04-22 02:01:25.223723,-0.0009873425588011742,0.004613059107214212,0.01876465603709221,0.26063206791877747,0.23019975423812866,0.07818388193845749,-3.179867992633014,16.982877758001308,1.621665252587274,-3.84965181350708,23.721303939819336,16.145586013793945,28.95168436238806,25.99835966161234,29.80097936769564,108.54356995009093,352.7235715196219,354.5176257192842,28.981455705037074,109.71675739287816,354.0206628628214,28.810482409733314,110.12716979972589,354.262243665557
2021-04-22 02:01:25.723598,-0.0009873425588011742,0.004127473570406437,0.016327690333127975,0.2633809745311737,0.228672593832016,0.08093277364969254,-3.179867992633014,16.982877758001308,1.621665252587274,-3.8129498958587646,23.892621994018555,16.326499938964844,29.1881923543478,25.99835966161234,29.736280400782693,108.63553844726515,352.7737495043594,354.6025975414274,28.904715114617396,109.80868490891737,354.0671644982381,28.74079057453709,110.19926244641537,354.2940224013309
2021-04-22 02:01:26.223588,-0.0012341781985014677,0.004613059107214212,0.019252052530646324,0.2646026909351349,0.22928345203399658,0.07818388193845749,-3.1292874536213073,17.01885577945435,1.6209024416312843,-3.911940097808838,23.96758270263672,15.53010082244873,28.82589682025519,25.995383892583803,29.8800934488519,108.24317140020459,352.3858050047864,354.27623146609034,29.06118791831322,109.41373605035055,353.781135385705,28.896925283868995,109.80870539948488,354.01580787898195
2021-04-22 02:01:26.723819,-0.0012341781985014677,0.0048558516427874565,0.018520960584282875,0.2642972767353058,0.23111605644226074,0.07910017669200897,-3.1292874536213073,17.01885577945435,1.6209024416312843,-4.240200996398926,23.876840591430664,15.437461853027344,28.74713985046387,25.995383892583803,29.835365955072067,108.39678235463818,352.2842400918283,354.1267352737448,29.080104127219567,109.50627145322588,353.6123848900893,28.94722279691697,109.8290866839682,353.80285026462377
2021-04-22 02:01:27.223611,-0.0014810138382017612,0.005341436713933945,0.020226839929819107,0.2679624557495117,0.23081061244010925,0.07940560579299927,-3.078705207062309,17.054828678265512,1.6201395878657974,-3.998143196105957,23.669376373291016,15.29076862335205,28.461063437790987,25.99245243840733,29.81201695339438,108.39392050537595,352.4038102372122,354.2227468160209,29.04018508661543,109.5415015689648,353.72571779210045,28.909926548954115,109.8553692518944,353.9098460317457
2021-04-22 02:01:27.723699,-0.0009873425588011742,0.004370266571640968,0.016327690333127975,0.26154837012290955,0.2335595190525055,0.07848931103944778,-3.078705207062309,17.054828678265512,1.6201395878657974,-3.646681785583496,23.790660858154297,15.437515258789062,28.59389287030303,25.99245243840733,29.58481412574849,108.81862849815651,352.6629809114947,354.165843229385,28.94855126871054,109.6047559508683,353.68209764273985,28.783714898376036,110.00301745118257,353.9187999828607
2021-04-22 02:01:28.223584,-0.0012341781985014677,0.0036418887320905924,0.019739443436264992,0.26215922832489014,0.2280617207288742,0.08032190799713135,-3.028121466399429,17.090799869529384,1.6193767045875957,-3.5452380180358887,24.083873748779297,15.593117713928223,28.909289292407202,25.989565378383176,29.70766190816034,108.34544665283636,352.3616047907834,354.1656468614464,28.889821887132182,109.54730039957015,353.69601073807917,28.763634142216198,109.85419445935716,353.8789944941515
2021-04-22 02:01:28.723509,-0.0009873425588011742,0.0048558516427874565,0.017058778554201126,0.26124295592308044,0.2280617207288742,0.07879474759101868,-3.028121466399429,17.090799869529384,1.6193767045875957,-3.6773557662963867,23.96685028076172,16.102813720703125,29.107275165085895,25.989565378383176,29.51344206401644,108.40075752473513,352.4134852001715,354.2298549085128,28.754655858552216,109.52677568111426,353.7149435955716,28.62277173586844,109.85039004398946,353.9052309583009
2021-04-22 02:01:29.223607,-0.0014810138382017612,0.004127473570406437,0.015596598386764526,0.26154837012290955,0.22989431023597717,0.0778784453868866,-2.9775362316326683,17.12676593815138,1.6186137820134046,-3.778434991836548,24.037574768066406,15.854203224182129,29.04199255546328,25.98672270306731,29.37937228079826,108.49105945575187,352.5265017790468,354.3201461673589,28.634919227307307,109.6091272719371,353.83505972920227,28.473807017617755,110.00167873410524,354.06681487792997
2021-04-22 02:01:29.723810,-0.0009873425588011742,0.004127473570406437,0.01730247773230076,0.2649081349372864,0.23233777284622192,0.07910017669200897,-2.9775362316326683,17.12676593815138,1.6186137820134046,-3.8740742206573486,24.019620895385742,15.967743873596191,29.101881097928736,25.98672270306731,29.447551229093328,108.55323466776649,352.5160524433903,354.36453172479344,28.659603530967733,109.67560550312884,353.8810909353399,28.49722261363985,110.06772666337928,354.1089025035956
2021-04-22 02:01:30.223743,-0.0009873425588011742,0.0036418887320905924,0.017789868637919426,0.2624646723270416,0.2289780229330063,0.08062733709812164,-2.9269495027620267,17.16272859167879,1.6178508249319647,-3.7316322326660156,23.820289611816406,15.583724021911621,28.70860029158137,25.983924458002203,29.27981885855074,108.49127119161614,352.42430080472224,354.22297520047124,28.51950781335431,109.61898323490944,353.7288869998754,28.351292206927944,110.01554401812037,353.96661216082447
2021-04-22 02:01:30.723664,-0.0004936712794005871,0.0048558516427874565,0.018520960584282875,0.2649081349372864,0.23019975423812866,0.08093277364969254,-2.9269495027620267,17.16272859167879,1.6178508249319647,-3.8190362453460693,23.62668228149414,15.892667770385742,28.729462966331162,25.983924458002203,29.494385836232105,108.54273666701218,352.45870959021346,354.1744578054757,28.667516305121193,109.68959373054902,353.77630089243314,28.53526505976953,110.0058588098773,353.9633046417189
2021-04-22 02:01:31.223596,-0.0012341781985014677,0.0036418887320905924,0.01730247773230076,0.2639918327331543,0.22989431023597717,0.08062733709812164,-2.8763610663440926,17.198687830111616,1.617087829623898,-4.21552848815918,23.34548568725586,16.129148483276367,28.686788129798117,25.98117065683425,29.54366565109375,108.66602841172008,352.53920678467665,354.33971508621784,28.71864027105874,109.82003668331792,353.85683778737086,28.591144544916695,110.12514806373157,354.0359125408039
2021-04-22 02:01:31.723699,-0.0007405069191008806,0.004613059107214212,0.01876465603709221,0.26215922832489014,0.23142147064208984,0.07910017669200897,-2.8763610663440926,17.198687830111616,1.617087829623898,-4.132090091705322,23.616668701171875,15.93835163116455,28.789794403321576,25.98117065683425,29.690596680519064,108.70959135824643,352.4714760675459,354.24587725164514,28.904428246672257,109.87299113995304,353.8290944127359,28.772731954190654,110.18823852109497,354.01465229635176
2021-04-22 02:01:32.223659,-0.0009873425588011742,0.0033990959636867046,0.018520960584282875,0.26674073934555054,0.2280617207288742,0.08093277364969254,-2.825771349265689,17.234643653449854,1.616324803322364,-4.031564712524414,23.634593963623047,16.29417610168457,28.988751623505756,25.97846135232996,29.742543684251594,108.55964821539713,352.419445393996,354.20568073460595,28.951150155689728,109.70414886367033,353.70934796309405,28.81568359878628,110.02757198124877,353.9023776467751
2021-04-22 02:01:32.723563,-0.0012341781985014677,0.0038846812676638365,0.017546173185110092,0.2636864185333252,0.2289780229330063,0.08001647144556046,-2.825771349265689,17.234643653449854,1.616324803322364,-4.105655670166016,24.035917282104492,16.173723220825195,29.260400730304358,25.97846135232996,29.811217821261486,108.50327183398785,352.3354033313536,354.15726707310847,28.99996551768781,109.65298391659776,353.6790825411081,28.873091338760236,109.95757620263447,353.8601854338378
2021-04-22 02:01:33.223692,-0.0014810138382017612,0.005341436713933945,0.01827726513147354,0.2639918327331543,0.23081061244010925,0.07940560579299927,-2.775179924639993,17.27059606169351,1.6155617386572039,-4.140140056610107,24.019315719604492,15.658954620361328,28.97017685705288,25.9757965446727,29.76462227074366,108.4785260586249,352.1896308727662,354.1209142450247,28.90913766210498,109.66921927625488,353.58777956049113,28.77650904880167,109.98710311041644,353.7755751848338
2021-04-22 02:01:33.723590,-0.0012341781985014677,0.0036418887320905924,0.019495747983455658,0.2627701163291931,0.23081061244010925,0.0775730162858963,-2.775179924639993,17.27059606169351,1.6155617386572039,-4.12576150894165,23.56693458557129,16.60169219970703,29.121100557552317,25.9757965446727,29.75618357202411,108.48724138000583,352.1317407506821,354.01399318309683,28.936407192366254,109.72407252547924,353.5293626600673,28.805776409395175,110.03522179311918,353.71460635498136
2021-04-22 02:01:34.223538,-0.0014810138382017612,0.0033990959636867046,0.01827726513147354,0.26551899313926697,0.23111605644226074,0.07910017669200897,-2.7245872193538276,17.30654505484258,1.6147986428616372,-4.077389240264893,23.744831085205078,15.908387184143066,28.870727200438797,25.973176285166858,29.7470755147659,108.52182945796278,352.10821757918063,354.01105065222504,28.928904229562995,109.67558501256133,353.48670215228503,28.80115920151625,109.98365386488558,353.669496370608
2021-04-22 02:01:34.723532,-0.0014810138382017612,0.0033990959636867046,0.019008353352546692,0.26551899313926697,0.22745086252689362,0.08123820275068283,-2.7245872193538276,17.30654505484258,1.6147986428616372,-4.390512943267822,23.908584594726562,16.00115394592285,29.10212962704484,25.973176285166858,29.84742806914631,108.43508605550362,351.85686234885594,353.7715189062405,29.090895826108188,109.55383006041669,353.2656311269665,28.924871002858104,109.95106020216629,353.4999676603137
2021-04-22 02:01:35.223543,-0.0009873425588011742,0.0038846812676638365,0.01730247773230076,0.2630755305290222,0.23172691464424133,0.08032190799713135,-2.673993233407193,17.342490632897064,1.6140355158672395,-4.4153265953063965,23.75498390197754,15.767325401306152,28.85139371741175,25.97060059867129,29.874598561664623,108.5365143646783,351.8212890161112,353.69413713181245,29.033245614418696,109.73013090327305,353.2232165059944,28.88402988671601,110.08772545726907,353.43461384901406
2021-04-22 02:01:35.723829,-0.0009873425588011742,0.0048558516427874565,0.01876465603709221,0.2630755305290222,0.22989431023597717,0.07848931103944778,-2.673993233407193,17.342490632897064,1.6140355158672395,-4.312397480010986,23.609882354736328,15.780274391174316,28.723516092060297,25.97060059867129,29.937890509608543,108.44348035799356,351.58924699943833,353.4535279234863,29.106741864982617,109.63851757593567,352.9502112835481,28.97798255384412,109.94802076798562,353.1307148271781
2021-04-22 02:01:36.223656,-0.0012341781985014677,0.0033990959636867046,0.017546173185110092,0.2649081349372864,0.22958888113498688,0.07940560579299927,-2.6233977533566772,17.378434503404254,1.6132723588123894,-4.3345866203308105,23.684938430786133,15.470762252807617,28.620087950986065,25.96806951370554,29.93617613212687,108.35469472897256,351.3697810685748,353.3036859528141,29.09944380785446,109.56744945762169,352.7675878199544,28.954981891814104,109.9176878978816,352.9714301199783
2021-04-22 02:01:36.723680,-0.0012341781985014677,0.005341436713933945,0.01827726513147354,0.26154837012290955,0.2289780229330063,0.07940560579299927,-2.6233977533566772,17.378434503404254,1.6132723588123894,-4.618556022644043,23.67936897277832,15.447199821472168,28.64715617662193,25.96806951370554,29.99350874001996,108.43968277281503,351.30877723400283,353.1078405236477,29.191682097500898,109.6607635020624,352.66153120384337,29.06349652225268,109.97176933572976,352.843411457478
2021-04-22 02:01:37.223667,-0.0014810138382017612,0.004127473570406437,0.017789868637919426,0.2594103515148163,0.23111605644226074,0.08123820275068283,-2.5728007792022805,17.41437325126957,1.6125091619135108,-4.383689880371094,23.530702590942383,15.503678321838379,28.517972278857624,25.96558302293563,29.994823551435186,108.44124688613496,351.3522394352389,353.2229048786135,29.176720568123983,109.61326636657414,352.71333221228235,29.045509219073455,109.9333358612701,352.9013195088086
2021-04-22 02:01:37.723570,-0.0014810138382017612,0.0036418887320905924,0.019983140751719475,0.2649081349372864,0.23111605644226074,0.07910017669200897,-2.5728007792022805,17.41437325126957,1.6125091619135108,-4.25595235824585,23.709239959716797,15.57083511352539,28.682609645492256,25.96558302293563,30.10280201202392,108.19599528360732,351.3283124288027,353.15244806223023,29.286293877883914,109.38945472785116,352.67549211050687,29.122748413302542,109.78218377493772,352.908373386674
2021-04-22 02:01:38.223742,-0.0012341781985014677,0.0036418887320905924,0.01803356595337391,0.2639918327331543,0.23050519824028015,0.07940560579299927,-2.5222025243874144,17.4503085840403,1.6117459336106974,-4.32352876663208,23.976165771484375,15.386908531188965,28.815037397941545,25.96314117876835,29.918055640258828,108.5309341001264,351.5282525563765,353.3824119938481,29.142443263774275,109.65398795440575,352.85545734985294,29.01317168844803,109.96636665609628,353.0380825209939
2021-04-22 02:01:38.723575,-0.0014810138382017612,0.004370266571640968,0.019252052530646324,0.2642972767353058,0.228672593832016,0.08032190799713135,-2.5222025243874144,17.4503085840403,1.6117459336106974,-4.500103950500488,24.28118324279785,15.514118194580078,29.16358446060837,25.96314117876835,30.020026949472534,108.30258721579453,351.3957409100627,353.19179251317047,29.2398998179466,109.45945733665461,352.6867909509414,29.075203466490084,109.85567661040706,352.92136184515437
2021-04-22 02:01:39.223522,-0.0014810138382017612,0.0048558516427874565,0.017058778554201126,0.2633809745311737,0.23050519824028015,0.07879474759101868,-2.471602988912079,17.486242209263736,1.6109826786933075,-4.152591228485107,23.94708824157715,15.116813659667969,28.62210866414105,25.96074401994798,29.962991454808343,108.40291586451285,351.48076139730375,353.2447251985776,29.194595173181906,109.55352270190403,352.76366131495524,29.02625833089777,109.95858707063164,353.0022210396436
2021-04-22 02:01:39.723533,-0.0007405069191008806,0.0036418887320905924,0.01730247773230076,0.2646026909351349,0.2283671498298645,0.07910017669200897,-2.471602988912079,17.486242209263736,1.6109826786933075,-3.8861355781555176,23.442909240722656,15.034051895141602,28.119295150952425,25.96074401994798,29.880223222446126,108.27336083633605,351.3577727422403,353.1800211090228,29.153392057013804,109.37391604748937,352.65871972722624,28.98399653540832,109.78246381269369,352.900676617253
2021-04-22 02:01:40.223726,-0.0012341781985014677,0.0029135108925402164,0.01657138578593731,0.2649081349372864,0.23111605644226074,0.08001647144556046,-2.4210021727762743,17.52217241939259,1.6102193922354209,-4.217171669006348,23.374980926513672,14.905842781066895,28.042083004203374,25.958391554111824,29.854449503613083,108.40805899695788,351.4507854045838,353.1405631061876,29.10563195924249,109.34624695116166,352.63195306964263,28.855595809201247,109.95542469304593,352.98831989713534
2021-04-22 02:01:40.723577,-0.0012341781985014677,0.0048558516427874565,0.01876465603709221,0.2676570415496826,0.23203235864639282,0.07940560579299927,-2.4210021727762743,17.52217241939259,1.6102193922354209,-4.547699451446533,23.387088775634766,15.140731811523438,28.229049780121656,25.958391554111824,30.011632646982587,108.21664977565743,351.3398042220813,353.18289363045557,29.169354209104124,109.45504503445079,352.6852584272463,29.026937934720188,109.80027694604908,352.8870059936292
2021-04-22 02:01:41.223556,-0.0009873425588011742,0.004613059107214212,0.01827726513147354,0.2639918327331543,0.22928345203399658,0.07879474759101868,-2.3704002894234115,17.558099214426857,1.6094560778196263,-4.221575736999512,23.61719512939453,15.022138595581055,28.306505532615038,25.95608381520194,30.03367366743422,108.1565509411505,351.213933227188,353.0701690421673,29.23066881728333,109.35979121628579,352.5699904472659,29.080756410285304,109.72224203478169,352.78459242966676
2021-04-22 02:01:41.723548,-0.0007405069191008806,0.0033990959636867046,0.01730247773230076,0.26582443714141846,0.23019975423812866,0.07848931103944778,-2.3704002894234115,17.558099214426857,1.6094560778196263,-4.139215469360352,23.45221710205078,15.588441848754883,28.462942767316378,25.95608381520194,30.108324219967873,107.97184213542583,351.1989401081862,353.03750152802763,29.257528536194403,109.21574935687939,352.519439363445,29.128854602420535,109.52893402089198,352.7072396835427
2021-04-22 02:01:42.223608,-0.0014810138382017612,0.004127473570406437,0.017546173185110092,0.2642972767353058,0.23142147064208984,0.07910017669200897,-2.319796911966668,17.59402259436654,1.608692728076012,-4.668443202972412,23.577594757080078,15.347159385681152,28.517234046764955,25.95382080384455,30.21342034072686,108.00595893033005,351.14267215603,352.97294215310586,29.449364644317967,109.12686127502084,352.4895222811067,29.318805578333173,109.44644582628574,352.6794425211681
2021-04-22 02:01:42.723542,-0.0014810138382017612,0.004370266571640968,0.019495747983455658,0.2624646723270416,0.22714541852474213,0.07971104234457016,-2.319796911966668,17.59402259436654,1.608692728076012,-4.596153259277344,23.57048225402832,15.154038429260254,28.396076123044296,25.95382080384455,30.29177285579066,108.06165912301151,351.1552986144844,353.02107492307374,29.45431311637164,109.265992228414,352.56020278618524,29.293431425566578,109.66535338918465,352.79710789754716
2021-04-22 02:01:43.223519,-0.0004936712794005871,0.0031563034281134605,0.017789868637919426,0.26185381412506104,0.22958888113498688,0.08001647144556046,-2.269192467292867,17.629944266758926,1.6079293550957596,-4.46287727355957,23.754547119140625,15.441204071044922,28.681467283909672,25.951602578049695,30.36698689893084,108.15960403570949,351.08376177443864,352.9309113033877,29.593560182980692,109.27580038006214,352.4318618241334,29.419690887468846,109.70302188245726,352.6857373942619
2021-04-22 02:01:43.723507,-0.0014810138382017612,0.0033990959636867046,0.01730247773230076,0.2627701163291931,0.23142147064208984,0.07848931103944778,-2.269192467292867,17.629944266758926,1.6079293550957596,-4.43785285949707,23.69342041015625,15.82628059387207,28.83650232207309,25.951602578049695,30.28593987423947,108.2208025306728,351.08934886917973,353.0447466511897,29.484946514799148,109.35941555588144,352.50629381061367,29.320957087921727,109.76167271686018,352.7407434689689
2021-04-22 02:01:44.223775,-0.0009873425588011742,0.005098644178360701,0.01827726513147354,0.2636864185333252,0.23050519824028015,0.07848931103944778,-2.218586741958596,17.66586252405673,1.607165950302171,-4.545936107635498,23.453632354736328,15.408897399902344,28.4283753458856,25.94942913442242,30.19498224506241,108.27280759101328,351.0443225546237,352.915104538101,29.392158394924525,109.45637009114976,352.415668299385,29.22932668511142,109.85343630835929,352.6519501559851
2021-04-22 02:01:44.723528,-0.0012341781985014677,0.004127473570406437,0.01876465603709221,0.26185381412506104,0.23019975423812866,0.07879474759101868,-2.218586741958596,17.66586252405673,1.607165950302171,-4.198716163635254,23.640411376953125,15.278103828430176,28.459071033444495,25.94942913442242,30.312669819556316,108.22505773852572,350.95382852453656,352.81803474339046,29.49030821329761,109.36817185839739,352.32859363275105,29.35545637341946,109.69947701427803,352.52435966096834
2021-04-22 02:01:45.223515,-0.0012341781985014677,0.004370266571640968,0.017058778554201126,0.2627701163291931,0.23142147064208984,0.07971104234457016,-2.167979949407268,17.701779073807245,1.6064025221356348,-5.225923538208008,23.914474487304688,15.17198657989502,28.799332346630155,25.947300518203637,30.290973723657768,108.5616836117698,350.96056906747367,352.79082583105804,29.473960155519183,109.70107527854381,352.2925908518623,29.343541108412374,110.01657537668504,352.48094356350913
2021-04-22 02:01:45.723738,-0.0012341781985014677,0.004370266571640968,0.01803356595337391,0.2627701163291931,0.23111605644226074,0.07971104234457016,-2.167979949407268,17.701779073807245,1.6064025221356348,-5.139703273773193,23.467540740966797,14.94714641571045,28.294154946632652,25.947300518203637,30.314513970632216,108.70470777298986,350.9093477713405,352.72468569423023,29.508240874963477,109.81902581532077,352.20401695870555,29.36735114785904,110.16492025526856,352.40622385531015
2021-04-22 02:01:46.223538,-0.0012341781985014677,0.0033990959636867046,0.017546173185110092,0.26154837012290955,0.228672593832016,0.07818388193845749,-2.11737187619547,17.73769220846317,1.6056390620194951,-4.760001182556152,23.17168426513672,15.194995880126953,28.115342123797742,25.945216726373566,30.330940575586098,108.70155222559332,350.92958049920935,352.76379535741773,29.60863441047891,109.77188384966934,352.24415627291046,29.441393813556562,110.17997399219927,352.48455246471184
2021-04-22 02:01:46.723603,-0.0007405069191008806,0.004127473570406437,0.01876465603709221,0.2627701163291931,0.23050519824028015,0.08001647144556046,-2.11737187619547,17.73769220846317,1.6056390620194951,-4.464756011962891,23.416196823120117,15.267391204833984,28.30804751491882,25.945216726373566,30.472158151770696,108.51540908014296,350.71806234721873,352.5825443349604,29.626259713632127,109.7751486800926,352.079708369585,29.49140104356481,110.10066866574624,352.27042774177926
2021-04-22 02:01:47.223758,-0.0017278495943173766,0.0033990959636867046,0.019008353352546692,0.2630755305290222,0.233254075050354,0.07879474759101868,-2.0667629492100255,17.773603635571806,1.6048755820450296,-4.7026543617248535,23.225934982299805,14.881200790405273,27.982300670463573,25.943177812188157,30.372509106874794,108.64063376838598,350.79687248495696,352.64886974066945,29.578526936617493,109.79279105871875,352.1504059501365,29.443299436334996,110.11791489340052,352.3417647987918
2021-04-22 02:01:47.723631,-0.0019746851176023483,0.005584229249507189,0.016327690333127975,0.2639918327331543,0.23172691464424133,0.07848931103944778,-2.0667629492100255,17.773603635571806,1.6048755820450296,-4.734658718109131,23.070823669433594,15.433990478515625,28.158266282816047,25.943177812188157,30.263758834909854,108.7750792120085,350.7558170716296,352.6434201034854,29.45170056901411,109.95893541027931,352.1448504450203,29.31120357778695,110.29302045315214,352.3411278836517
2021-04-22 02:01:48.223708,-0.0007405069191008806,0.004370266571640968,0.01730247773230076,0.2633809745311737,0.22989431023597717,0.07879474759101868,-2.016152741564112,17.809511647585854,1.60411206998479,-4.835736274719238,23.57091522216797,15.459733963012695,28.600275591965776,25.9411837629292,30.216480265475024,108.82459125330193,350.74073601394224,352.58726399567684,29.44923828581832,109.94223559775862,352.084334968974,29.312170049554506,110.27263233847965,352.2785710348172
2021-04-22 02:01:48.723560,-0.0014810138382017612,0.004613059107214212,0.01657138578593731,0.26704615354537964,0.23294863104820251,0.07848931103944778,-2.016152741564112,17.809511647585854,1.60411206998479,-4.8351593017578125,23.479145050048828,15.291423797607422,28.43372398249378,25.9411837629292,30.185833206669177,108.88758608801696,350.74090506112424,352.61920452155675,29.349507278652382,110.07743236218985,352.1175074902255,29.179715606075035,110.48573424058405,352.35521514881486
2021-04-22 02:01:49.223664,-0.0014810138382017612,0.004370266571640968,0.017789868637919426,0.26643529534339905,0.2289780229330063,0.0778784453868866,-1.9655414667011406,17.84541795205261,1.6033485342792337,-4.6333909034729,23.432567596435547,15.197505950927734,28.311088332213412,25.939234620579875,30.290078968876497,108.726407283983,350.71233096473145,352.5724928578231,29.436844907569334,109.9703008450582,352.0546595045776,29.297232425839688,110.3087708693782,352.2530457641152
2021-04-22 02:01:49.723649,-0.0014810138382017612,0.004127473570406437,0.01730247773230076,0.2646026909351349,0.23019975423812866,0.0778784453868866,-1.9655414667011406,17.84541795205261,1.6033485342792337,-4.943666458129883,23.228071212768555,15.581822395324707,28.403808186124063,25.939234620579875,30.27483398664903,108.89722348493585,350.6326098505127,352.4458577355164,29.46202781503917,110.01794824470822,351.9320806608643,29.323091522037355,110.34914411756213,352.12589667007353
