Date/Time,a_x,a_y,a_z,w_x,w_y,w_z,Lat ,Long,Polar_angle,B_x,B_y,B_z,B_total,B_theoretical,Pitch,Roll,Yaw,North_compass_only,Pitch_accel_only,Roll_accel_only,Yaw_accel_only,Pitch_gyro_only,Roll_gyro_only,Yaw_gyro_only
2021-04-22 02:09:29.192618,-0.0014810138382017612,0.004127473570406437,0.01827726513147354,0.26124295592308044,0.228672593832016,0.08062733709812164,21.0057942923417,35.15616186568746,1.2583870201249483,-29.118919372558594,11.161483764648438,17.816242218017578,35.91529857908954,29.339219964358183,10.017932370758789,92.57438959511518,244.70926182925783,245.2164443562663,9.56469297026779,93.52637453144239,245.14799220040442,9.46046342975975,93.86213297066188,245.40314074703943
2021-04-22 02:09:29.692682,-0.0012341781985014677,0.0031563034281134605,0.01803356595337391,0.2649081349372864,0.2289780229330063,0.07971104234457016,21.0057942923417,35.15616186568746,1.2583870201249483,-29.46412467956543,10.858222961425781,18.56400489807129,36.4781842594807,29.339219964358183,10.069326982942197,92.42874264125383,244.81241134610337,245.39687063338135,9.604432718406217,93.47690347128399,245.34308972385668,9.52024380669664,93.74600609439332,245.548917474495
2021-04-22 02:09:30.192728,-0.0009873425588011742,0.0036418887320905924,0.019739443436264992,0.2630755305290222,0.23019975423812866,0.0778784453868866,21.05404787128055,35.197972868691686,1.257671618741935,-29.807172775268555,10.968878746032715,18.660388946533203,36.83739900475843,29.35358054158769,10.07219139352537,92.43850981176695,244.94484871410992,245.53766815293199,9.619700752522135,93.37981916242143,245.4568533546724,9.539743143003381,93.64210525673909,245.6555367274389
2021-04-22 02:09:30.692714,-0.0012341781985014677,0.0036418887320905924,0.017058778554201126,0.26154837012290955,0.22958888113498688,0.07971104234457016,21.05404787128055,35.197972868691686,1.257671618741935,-29.759946823120117,10.600098609924316,18.59478187561035,36.65763820074316,29.35358054158769,10.114970575844453,92.24897889248827,244.84596123530645,245.46230384563006,9.712503386548745,93.3136824406882,245.39846889764715,9.613174506770187,93.63688699221319,245.6418900094772
2021-04-22 02:09:31.192667,-0.0019746851176023483,0.0048558516427874565,0.01730247773230076,0.26521357893943787,0.23019975423812866,0.08001647144556046,21.102291204935643,35.2398111924526,1.256956424280093,-29.956514358520508,10.686556816101074,18.188840866088867,36.63917549765423,29.36795834516645,10.202572874591745,92.47150645564729,244.85479950009244,245.48816977201693,9.754604672592704,93.44164603478838,245.39636519938279,9.674141629075368,93.69747077015121,245.59427676077306
2021-04-22 02:09:31.692700,-0.0009873425588011742,0.0038846812676638365,0.01584029383957386,0.26521357893943787,0.22745086252689362,0.08001647144556046,21.102291204935643,35.2398111924526,1.256956424280093,-29.90471649169922,10.705901145935059,18.140953063964844,36.57871738954793,29.36795834516645,10.21255946493195,92.53508185644176,244.9170361838096,245.53193079402917,9.779865273464349,93.54894147646012,245.43471671157238,9.674086987562008,93.88497995343558,245.686033522083
2021-04-22 02:09:32.192671,-0.0012341781985014677,0.005341436713933945,0.016083991155028343,0.2633809745311737,0.22683998942375183,0.07726757973432541,21.150519170665103,35.28168025206478,1.2562415333814123,-29.805776596069336,10.624778747558594,18.8544864654541,36.83424903273256,29.382351348645162,10.265175827203143,92.9744610955595,244.79364198626416,245.41206097409548,9.78329061333311,93.85933259310217,245.33875938392288,9.697561493965695,94.13290899011787,245.54202581362244
2021-04-22 02:09:32.692718,-0.0017278495943173766,0.004613059107214212,0.02047053538262844,0.2646026909351349,0.22989431023597717,0.07879474759101868,21.150519170665103,35.28168025206478,1.2562415333814123,-30.156587600708008,10.283066749572754,18.779014587402344,36.983950929683196,29.382351348645162,10.289418729888457,93.0389449115136,244.78492666488324,245.38110655677696,9.79703636903776,93.90876267212555,245.28234202137858,9.690833757633232,94.24284771499839,245.53517513388493
2021-04-22 02:09:33.192512,-0.0009873425588011742,0.005341436713933945,0.016815081238746643,0.2597157955169678,0.22958888113498688,0.0775730162858963,21.19873689111081,35.323580047528225,1.2555268581454302,-30.158056259155273,10.479008674621582,18.817171096801758,37.059464489108315,29.396761237872724,10.318242981959557,93.1678169207734,244.67060295855555,245.27344911507922,9.863932095542513,94.11794404564637,245.17826359880593,9.758533738912753,94.45633210769631,245.43218954157948
2021-04-22 02:09:33.692657,-0.0017278495943173766,0.0031563034281134605,0.017789868637919426,0.26612985134124756,0.22958888113498688,0.08032190799713135,21.19873689111081,35.323580047528225,1.2555268581454302,-30.05915069580078,10.690693855285645,19.177701950073242,37.22402084334988,29.396761237872724,10.35770781498389,93.16824722269111,244.7231407736513,245.29512813550485,9.892573640053314,94.07546709919805,245.25328639664934,9.810710407756126,94.32948183443082,245.4473047502127
2021-04-22 02:09:34.192701,-0.0009873425588011742,0.004127473570406437,0.017789868637919426,0.2646026909351349,0.22989431023597717,0.07940560579299927,21.24694095117817,35.36551057884293,1.2548124568981558,-30.269407272338867,10.764030456542969,18.936847686767578,37.29216497603672,29.411186754440145,10.287616413721219,93.17940092160575,244.5712237061319,245.2528629249208,9.785307226685557,94.11667363046074,245.15571031416653,9.700182579059687,94.37918512102101,245.35517915868758
2021-04-22 02:09:34.692705,-0.0007405069191008806,0.004370266571640968,0.017546173185110092,0.2636864185333252,0.22958888113498688,0.07910017669200897,21.24694095117817,35.36551057884293,1.2548124568981558,-30.003555297851562,10.670805931091309,18.783002853393555,36.97134871655131,29.411186754440145,10.216359611431415,93.21861303763079,244.44784316896477,245.0849768751219,9.758059040765437,94.19304880575983,244.9944632082409,9.669361350430005,94.4661265989661,245.19901371350443
2021-04-22 02:09:35.192623,-0.0012341781985014677,0.0048558516427874565,0.017058778554201126,0.2600212097167969,0.23019975423812866,0.08062733709812164,21.29513305841449,35.40746843091432,1.2540982911761136,-29.952165603637695,10.581241607666016,19.45816421508789,37.25204763404109,29.4256285918943,10.185893552638573,93.45043648825019,244.30275629061535,244.87759867154196,9.724667953460537,94.39757882045586,244.78797292925304,9.62153978095616,94.71656231507379,245.0286004937126
2021-04-22 02:09:35.692564,-0.0007405069191008806,0.004613059107214212,0.01827726513147354,0.2627701163291931,0.2289780229330063,0.08001647144556046,21.29513305841449,35.40746843091432,1.2540982911761136,-30.077648162841797,10.577014923095703,19.53879165649414,37.3938837657574,29.4256285918943,10.2108510638658,93.21356552783415,244.1144889563331,244.6997951870682,9.748388346674345,94.2082254860956,244.61988197377906,9.664197727417475,94.4678136556911,244.81608598787682
2021-04-22 02:09:36.192575,-0.0007405069191008806,0.004370266571640968,0.01827726513147354,0.2639918327331543,0.23081061244010925,0.07940560579299927,21.34331321281976,35.449460433931556,1.2533843789220716,-29.78582763671875,10.400052070617676,20.0848445892334,37.399967824177814,29.440086305332514,10.19304134560499,92.95793203776807,244.01494577936936,244.5853895184705,9.740554973469987,93.96551471393919,244.5077166072291,9.63649533391755,94.2915196430239,244.7553246250204
2021-04-22 02:09:36.692739,-0.0012341781985014677,0.004370266571640968,0.016083991155028343,0.26093751192092896,0.23019975423812866,0.08001647144556046,21.34331321281976,35.449460433931556,1.2533843789220716,-29.49146842956543,10.337725639343262,19.556570053100586,36.8656305217776,29.440086305332514,10.193224906938935,93.18932518646977,243.86826063675414,244.50193826719126,9.74110992634005,94.21489858091469,244.43463358310996,9.657508410899094,94.47747837336667,244.63365163514578
2021-04-22 02:09:37.192516,-0.0017278495943173766,0.004127473570406437,0.018520960584282875,0.2639918327331543,0.23233777284622192,0.07971104234457016,21.391479706846688,35.49147975770548,1.2526707311139336,-29.790733337402344,10.641166687011719,18.889772415161133,36.84488734054653,29.45455958924808,10.157189682651595,93.1459739758077,243.92913128263731,244.52089887232722,9.680102676673496,94.07277600466507,244.42453856351668,9.595208547932115,94.33681062741026,244.6255646911685
2021-04-22 02:09:37.692721,-0.0014810138382017612,0.0038846812676638365,0.018520960584282875,0.2630755305290222,0.23050519824028015,0.08032190799713135,21.391479706846688,35.49147975770548,1.2526707311139336,-29.659027099609375,10.598939895629883,18.930316925048828,36.747140219197036,29.45455958924808,10.114869830554195,93.27655353236,243.96404720967442,244.55630657298457,9.662231486710159,94.22733635539329,244.48329185075713,9.572101164196315,94.508787960522,244.69404416778704
2021-04-22 02:09:38.192629,-0.0014810138382017612,0.0031563034281134605,0.016327690333127975,0.2642972767353058,0.23050519824028015,0.07879474759101868,21.439634248042573,35.53352981733066,1.2519573273921871,-29.965234756469727,10.565153121948242,19.190723419189453,37.11901965101423,29.46904877392416,10.1848510950165,93.0616279697472,243.8423059179081,244.4196344876926,9.73665493545391,94.07397811795899,244.3528762187449,9.654579113518805,94.33162651383022,244.54856113846577
2021-04-22 02:09:38.692580,-0.0014810138382017612,0.004127473570406437,0.01803356595337391,0.2646026909351349,0.228672593832016,0.07940560579299927,21.439634248042573,35.53352981733066,1.2519573273921871,-29.9613094329834,10.376636505126953,19.22597885131836,37.0808968458134,29.46904877392416,10.095204862160083,93.2753445888769,244.1883096408826,244.72729352866668,9.638107258561673,94.31310304080114,244.65490718384285,9.533233972724359,94.63366430911735,244.89677784273135
2021-04-22 02:09:39.192734,-0.0009873425588011742,0.0031563034281134605,0.01827726513147354,0.2642972767353058,0.2280617207288742,0.08001647144556046,21.487775128860115,35.57561402790169,1.2512442058774875,-30.5470027923584,10.211944580078125,18.88840675354004,37.33865425253186,29.483553001890076,10.227483428268426,92.97970668084209,244.00080728778744,244.5887089904071,9.773380862621067,93.950160448685,244.52904045781787,9.69209136621416,94.20146359881728,244.71841428274564
2021-04-22 02:09:39.692744,-0.0014810138382017612,0.0026707183569669724,0.01730247773230076,0.2624646723270416,0.23081061244010925,0.08032190799713135,21.487775128860115,35.57561402790169,1.2512442058774875,-30.32452964782715,10.213346481323242,18.577316284179688,37.0000841219578,29.483553001890076,10.287784607129531,92.93032441314288,244.15006058153054,244.62769571018953,9.796856222798402,93.89769776567013,244.55880642222078,9.695509022120106,94.22276695883855,244.80402387380258
2021-04-22 02:09:40.192740,-0.0009873425588011742,0.004370266571640968,0.01730247773230076,0.2633809745311737,0.2283671498298645,0.0778784453868866,21.535904056846608,35.617725559229406,1.2505313190723226,-30.51100730895996,9.823832511901855,18.990142822265625,37.25660715415931,29.498073156523564,10.342863252596514,92.84505633154444,243.95197143522182,244.5914683868318,9.89236275796269,93.82480598684776,244.50411026734733,9.791293887493072,94.1464737458095,244.74824854904026
2021-04-22 02:09:40.692614,-0.0,0.0048558516427874565,0.018520960584282875,0.2646026909351349,0.23294863104820251,0.08062733709812164,21.535904056846608,35.617725559229406,1.2505313190723226,-29.980207443237305,10.039621353149414,19.834016799926758,37.322849002640886,29.498073156523564,10.216581592579441,93.20577911218034,244.15893982745155,244.48587366226337,9.862175883152172,93.84132138426085,244.41216226074062,9.780760882019267,94.09765838381142,244.60428182171472
2021-04-22 02:09:41.192605,-0.0012341781985014677,0.004613059107214212,0.016815081238746643,0.2639918327331543,0.23081061244010925,0.08123820275068283,21.584021032002056,35.65986782640839,1.2498186758531016,-30.44278907775879,10.434898376464844,19.28666877746582,37.51834356007383,29.51260897618685,10.295307206726653,92.90908252482414,243.89672886521475,244.5100798526819,9.831492112079536,93.83706617640793,244.44138181000994,9.727625425371153,94.16658182272603,244.68654462007837
2021-04-22 02:09:41.692864,-0.0009873425588011742,0.004370266571640968,0.01657138578593731,0.26551899313926697,0.23081061244010925,0.08001647144556046,21.584021032002056,35.65986782640839,1.2498186758531016,-30.13669776916504,10.300271034240723,19.63991928100586,37.417142664469196,29.51260897618685,10.260172713636107,92.90387109048743,243.78538312136521,244.3816176547723,9.800800657044084,93.8842218024377,244.26740323147135,9.695803574028064,94.21730280750253,244.5179209098491
2021-04-22 02:09:42.192551,-0.0009873425588011742,0.005098644178360701,0.01876465603709221,0.2624646723270416,0.23294863104820251,0.08093277364969254,21.63212263923187,35.70204424453321,1.2491063435780427,-30.01171875,10.085832595825195,19.44389533996582,37.15497742526102,29.527159002977935,10.257189628516105,92.94284414989153,243.77099874297318,244.3031114604522,9.796204793506313,93.8813053116621,244.2060544723463,9.683646691079087,94.23127054435521,244.47308754813713
2021-04-22 02:09:42.692688,-0.0009873425588011742,0.0048558516427874565,0.01876465603709221,0.2627701163291931,0.23050519824028015,0.07940560579299927,21.63212263923187,35.70204424453321,1.2491063435780427,-30.11712074279785,10.225113868713379,19.42731475830078,37.26948449043145,29.527159002977935,10.251202967708588,92.93081618676312,243.49684861006722,244.11319122039083,9.776048051491959,93.90141338857862,244.02437144042398,9.687222295109589,94.1823049181954,244.23735039912333
2021-04-22 02:09:43.192581,-0.0017278495943173766,0.004370266571640968,0.017058778554201126,0.2633809745311737,0.22989431023597717,0.07818388193845749,21.68021400117793,35.74424798341472,1.2483942162722759,-30.032941818237305,10.048279762268066,18.88995933532715,36.87514181842215,29.54172531936406,10.222826093028125,92.98219969988914,243.35330535447022,244.02545061031282,9.799636109790598,93.85240678128378,243.90917346988255,9.696655640127021,94.17279729487073,244.15429529881595
2021-04-22 02:09:43.692769,-0.0004936712794005871,0.0048558516427874565,0.016815081238746643,0.2633809745311737,0.23111605644226074,0.08001647144556046,21.68021400117793,35.74424798341472,1.2483942162722759,-30.02861785888672,10.531054496765137,19.003488540649414,37.06418184775541,29.54172531936406,10.153333187091476,93.05216132755757,243.30028942613257,243.8180997274896,9.705148126586288,94.09879902540281,243.7428447032144,9.602477576756302,94.42110199195739,243.98612238107188
2021-04-22 02:09:44.192633,-0.0007405069191008806,0.004370266571640968,0.01827726513147354,0.26032665371894836,0.22928345203399658,0.08001647144556046,21.72829170274565,35.786485873242086,1.2476823703219486,-29.914335250854492,10.405817985534668,18.834896087646484,36.84971929446727,29.556306282163348,10.085268644465007,93.0396279304306,243.23451470442535,243.81516274614648,9.652952674722696,94.00316954683348,243.74272175980934,9.544843586766088,94.34711055267863,244.00651732593354
2021-04-22 02:09:44.692557,-0.0009873425588011742,0.0036418887320905924,0.019252052530646324,0.2642972767353058,0.23019975423812866,0.08032190799713135,21.72829170274565,35.786485873242086,1.2476823703219486,-30.0227108001709,10.35500717163086,19.419782638549805,37.2252239085777,29.556306282163348,10.101054919184199,92.98199479421403,243.2692667069224,243.80584636811858,9.650320490571302,94.01210343426784,243.74983881692447,9.569895013094403,94.26610450912229,243.94061966082126
2021-04-22 02:09:45.192588,-0.0014810138382017612,0.0036418887320905924,0.017058778554201126,0.26032665371894836,0.2326432168483734,0.07910017669200897,21.77635574393503,35.82875108382612,1.246970787505281,-30.696889877319336,10.403014183044434,19.31816291809082,37.732123857037166,29.570902181542504,10.103911645804557,92.77997828913257,243.19556896577794,243.75942840251918,9.642986574950001,93.74170990540539,243.67610009464502,9.557473460315087,94.01223320786208,243.87856056202253
2021-04-22 02:09:45.692755,-0.0012341781985014677,0.0033990959636867046,0.019252052530646324,0.26612985134124756,0.23019975423812866,0.08062733709812164,21.77635574393503,35.82875108382612,1.246970787505281,-30.530376434326172,10.007270812988281,18.970727920532227,37.31136384777441,29.570902181542504,10.163457234988728,92.66575020545328,243.19779560744735,243.80554583979512,9.68290561555414,93.65548559732314,243.755685458854,9.601908963507897,93.91870059736792,243.95265445413884
2021-04-22 02:09:46.192516,-0.0012341781985014677,0.004127473570406437,0.019252052530646324,0.2624646723270416,0.2283671498298645,0.08032190799713135,21.824407832293364,35.87105044535601,1.246259456453656,-30.039215087890625,10.059672355651855,19.20379066467285,37.04506751096829,29.585513169047346,10.202913530276598,92.73638119166037,243.307297200221,243.9027804128194,9.734119227724543,93.66185816381876,243.826473539412,9.65657096743551,93.90979403069022,244.01364804342705
2021-04-22 02:09:46.692625,-0.0017278495943173766,0.0036418887320905924,0.016083991155028343,0.2627701163291931,0.2289780229330063,0.07910017669200897,21.824407832293364,35.87105044535601,1.246259456453656,-30.45195198059082,10.335893630981445,19.50583267211914,37.61156185020615,29.585513169047346,10.22304124398698,92.75594285344329,243.36994369528838,243.93467739624336,9.774133037203416,93.73813771646947,243.83648659673526,9.689436130174318,94.00694664144449,244.03968472454312
2021-04-22 02:09:47.192610,-0.0017278495943173766,0.004370266571640968,0.017546173185110092,0.2627701163291931,0.23142147064208984,0.08123820275068283,21.872446260273353,35.913380542737166,1.2455483972205577,-30.42406463623047,10.259834289550781,19.708168029785156,37.673595471215876,29.600138750915487,10.256325609586098,92.67046986616975,243.26216331018557,243.86010539088517,9.807140780141149,93.63115646349955,243.7745231205849,9.70333215004071,93.95742093977273,244.01956298724826
2021-04-22 02:09:47.692709,-0.0007405069191008806,0.0038846812676638365,0.019008353352546692,0.26154837012290955,0.2326432168483734,0.07940560579299927,21.872446260273353,35.913380542737166,1.2455483972205577,-30.93367576599121,10.389193534851074,19.38292121887207,37.954252379371994,29.600138750915487,10.155076592877121,92.56774382105276,243.34684399551537,243.9320682639804,9.720137830493526,93.58016227115624,243.8333583700954,9.638079937804992,93.84254398812229,244.0290296294379
2021-04-22 02:09:48.192689,-0.0007405069191008806,0.0033990959636867046,0.020226839929819107,0.2639918327331543,0.22958888113498688,0.0824599340558052,21.920471027875006,35.95574137596958,1.244837609636979,-30.73363494873047,10.587051391601562,19.306320190429688,37.807088933500715,29.614778848082583,10.13645664342602,92.42349705597127,243.36337305330682,243.94070162309131,9.686338639385719,93.37128142595891,243.83969678564517,9.603099123970772,93.63664110540307,244.03975302643482
2021-04-22 02:09:48.692745,-0.0012341781985014677,0.004127473570406437,0.016327690333127975,0.26215922832489014,0.22958888113498688,0.08062733709812164,21.920471027875006,35.95574137596958,1.244837609636979,-30.589521408081055,10.551054954528809,18.957155227661133,37.502230799708116,29.614778848082583,10.11557931645423,92.52301974236752,243.35133825998923,243.95014094452426,9.678446355799768,93.47547596174745,243.85880765494286,9.598107963234785,93.7373795654716,244.0539051783951
2021-04-22 02:09:49.192692,-0.0009873425588011742,0.0048558516427874565,0.016327690333127975,0.2642972767353058,0.22745086252689362,0.07940560579299927,21.96848384264561,35.998132945053264,1.2441270642851965,-30.81589698791504,10.466408729553223,19.07364845275879,37.722265098523536,29.629433985341485,10.083876993421617,92.6134036356543,243.2192697221979,243.83770237040753,9.627975526701606,93.54601815549535,243.73728492923,9.521559471885514,93.8878418026978,243.99546607985647
2021-04-22 02:09:49.692554,-0.0014810138382017612,0.0048558516427874565,0.017546173185110092,0.2591049075126648,0.2289780229330063,0.07818388193845749,21.96848384264561,35.998132945053264,1.2441270642851965,-30.861963272094727,9.997111320495605,19.03685760498047,37.61389316774864,29.629433985341485,10.121646231984494,92.44544928396368,243.143304358249,243.6779032645859,9.678068987848125,93.4393169402814,243.60460167441335,9.57252378215121,93.77383911526113,243.858452485106
2021-04-22 02:09:50.192606,-0.00024683563970029354,0.0038846812676638365,0.02120162732899189,0.26185381412506104,0.2289780229330063,0.07940560579299927,22.016482997037876,36.0405586650828,1.2434167992503249,-30.651578903198242,10.157696723937988,19.52772331237793,37.73632294963669,29.644103295849913,10.15202008322354,92.50565057130818,243.15096783049776,243.74328183532128,9.690249776459197,93.49879422757388,243.64505005467814,9.611155332096804,93.75039790602963,243.83491565322618
2021-04-22 02:09:50.692706,-0.0007405069191008806,0.0038846812676638365,0.015596598386764526,0.2639918327331543,0.22958888113498688,0.07910017669200897,22.016482997037876,36.0405586650828,1.2434167992503249,-30.5355224609375,9.706121444702148,19.083171844482422,37.29335561608492,29.644103295849913,10.227458668832686,92.49895698592157,243.07998850464298,243.67069058482235,9.782424033082165,93.47113196143533,243.59115986212674,9.680601280482907,93.7941862487986,243.8314595775061
2021-04-22 02:09:51.198143,-0.0012341781985014677,0.004127473570406437,0.016815081238746643,0.2600212097167969,0.23111605644226074,0.07971104234457016,22.064470198599093,36.0830151209636,1.242706776100649,-30.121488571166992,9.708382606506348,18.598125457763672,36.70758827708483,29.658787492192936,10.114000688982312,92.78841357275753,243.32601191854684,243.93273762251908,9.649943976393304,93.73570616912494,243.83344033236543,9.567495055374788,93.99467962169514,244.0314475164041
2021-04-22 02:09:51.697674,-0.0007405069191008806,0.0031563034281134605,0.017789868637919426,0.26215922832489014,0.22989431023597717,0.07635128498077393,22.064470198599093,36.0830151209636,1.242706776100649,-30.677698135375977,10.319732666015625,18.93093490600586,37.49664440451588,29.658787492192936,10.189496477425754,92.36563852351209,243.1770864738839,243.74262613716093,9.736467959025381,93.32148934690952,243.69364002043363,9.652615434132427,93.59001823412856,243.89525354435403
2021-04-22 02:09:52.197556,-0.0014810138382017612,0.0033990959636867046,0.016327690333127975,0.2642972767353058,0.22714541852474213,0.07910017669200897,22.11244203223468,36.125502312695666,1.2419970531631837,-30.467113494873047,10.168615341186523,19.146677017211914,37.39306063252806,29.67348528626715,10.186696953639697,92.40692701704481,243.08720118440652,243.7759984414456,9.735626138210176,93.43694003445025,243.67693337772374,9.655005146568284,93.69805133623066,243.8718259955009
2021-04-22 02:09:52.697590,-0.0012341781985014677,0.0038846812676638365,0.017546173185110092,0.26612985134124756,0.2283671498298645,0.08001647144556046,22.11244203223468,36.125502312695666,1.2419970531631837,-30.55158233642578,10.33578109741211,19.244768142700195,37.55780418261048,29.67348528626715,10.203513733149913,92.39999437503725,243.25829742311532,243.83910938937655,9.740251883825568,93.46599565917948,243.76996055421932,9.656127858913106,93.73616379179933,243.97793981444624
2021-04-22 02:09:53.197527,-0.0014810138382017612,0.004127473570406437,0.018520960584282875,0.2591049075126648,0.22958888113498688,0.07971104234457016,22.160401913039216,36.16802024027899,1.2412875717695957,-30.514495849609375,10.4474515914917,18.630786895751953,37.247683445649514,29.688197811398787,10.213021356474572,92.372946825924,243.27582368852558,243.91835324412705,9.776439079821941,93.48071471684085,243.8577967869457,9.695164097567021,93.74358820742714,244.0565962729281
2021-04-22 02:09:53.697700,-0.0012341781985014677,0.004127473570406437,0.01803356595337391,0.2630755305290222,0.228672593832016,0.08032190799713135,22.160401913039216,36.16802024027899,1.2412875717695957,-30.496980667114258,10.116063117980957,19.42035484313965,37.54398413928352,29.688197811398787,10.343887780972015,92.13891039401351,243.04593318144128,243.65376537605908,9.909255523327424,93.14963495720282,243.57893382351241,9.82812482881872,93.4122830515465,243.77735081890128
2021-04-22 02:09:54.197602,-0.0014810138382017612,0.0029135108925402164,0.017546173185110092,0.2594103515148163,0.23294863104820251,0.07879474759101868,22.20834813346541,36.210572318808175,1.2405783699918276,-30.67255401611328,9.7351713180542,18.609209060668945,37.173670686749986,29.702924197467482,10.388236199252908,92.15433979134856,243.17826126642115,243.7825827438055,9.92458076027764,93.04010604367251,243.68560771796967,9.832508102718576,93.3470274242162,243.91583973451247
2021-04-22 02:09:54.697699,-0.0017278495943173766,0.0031563034281134605,0.017546173185110092,0.26032665371894836,0.23050519824028015,0.08032190799713135,22.20834813346541,36.210572318808175,1.2405783699918276,-30.366708755493164,9.899877548217773,19.30443000793457,37.3203107441765,29.702924197467482,10.46383273298661,92.09700035326631,243.1434409620324,243.7867764799559,10.00903348804391,93.13105001247122,243.70583873829128,9.925482345248081,93.39862267320648,243.9095423000977
2021-04-22 02:09:55.197562,-0.0012341781985014677,0.0038846812676638365,0.01730247773230076,0.2642972767353058,0.2277562916278839,0.07879474759101868,22.256282401060563,36.25315513318862,1.2398694094086362,-30.24698829650879,10.040575981140137,19.20556640625,37.20950480760348,29.717665161831494,10.491416451949705,92.23060568362094,243.15635001956372,243.723064475378,10.0334070180971,93.15838442952962,243.640665073231,9.951221059361629,93.42258980700404,243.8405027479672
2021-04-22 02:09:55.697622,-0.0014810138382017612,0.0031563034281134605,0.017789868637919426,0.2639918327331543,0.2283671498298645,0.07971104234457016,22.256282401060563,36.25315513318862,1.2398694094086362,-30.48804473876953,9.913084983825684,18.608388900756836,37.06834584077866,29.717665161831494,10.48433866842228,92.2730006677992,243.25031976216476,243.89578629910932,10.062025510719453,93.10443276527569,243.79407112198948,9.965762532104586,93.41687293866875,244.03307310142657
2021-04-22 02:09:56.198209,-0.0004936712794005871,0.0038846812676638365,0.017546173185110092,0.26521357893943787,0.2277562916278839,0.08001647144556046,22.304201300730078,36.29577209851492,1.2391607573349805,-30.70383644104004,9.823850631713867,18.824565887451172,37.33092410165269,29.73241922337634,10.477609224542524,92.48420377731433,243.08855356186217,243.75048085470644,10.031175253785799,93.37047546363685,243.65999450858214,9.929289321936718,93.69941054387549,243.90638675270117
2021-04-22 02:09:56.697631,-0.0009873425588011742,0.004370266571640968,0.016815081238746643,0.2636864185333252,0.23019975423812866,0.08001647144556046,22.304201300730078,36.29577209851492,1.2391607573349805,-30.669286727905273,9.812962532043457,18.67095947265625,37.222360345407,29.73241922337634,10.576317410880257,92.60762529561646,242.93533875840046,243.51731185682058,10.120800142301059,93.5226793991014,243.4444200779982,10.019239498211201,93.84608202611234,243.69058009568545
2021-04-22 02:09:57.197761,-0.0007405069191008806,0.004613059107214212,0.01584029383957386,0.2636864185333252,0.2283671498298645,0.07879474759101868,22.352108247568548,36.338419799692474,1.2384523461055905,-30.665834426879883,9.87258243560791,19.06444549560547,37.43413371643047,29.747187709588072,10.517185048140872,92.7582173064369,242.8974585292636,243.5066704220937,10.057461236806592,93.73276918778184,243.4188888308807,9.965386871700234,94.03206807721179,243.64276877149535
2021-04-22 02:09:57.697650,-0.0012341781985014677,0.004127473570406437,0.019252052530646324,0.2627701163291931,0.23111605644226074,0.07971104234457016,22.352108247568548,36.338419799692474,1.2384523461055905,-30.363073348999023,9.965937614440918,18.767446517944336,37.06012931083112,29.747187709588072,10.466972058683876,92.72729704006426,242.8700284895568,243.45351788997266,10.01190302126896,93.63235174660431,243.37103652555555,9.924577345183055,93.90786791734428,243.57730823848996
2021-04-22 02:09:58.197747,-0.0019746851176023483,0.004127473570406437,0.019252052530646324,0.2633809745311737,0.22989431023597717,0.0778784453868866,22.40000153402868,36.3810982367213,1.2377442047976468,-30.500974655151367,9.98204517364502,18.78158187866211,37.18465407433239,29.76196993474263,10.500527070528857,92.5509005745595,242.77570357711892,243.44630521020912,10.01698724333239,93.54726124992429,243.3474040710273,9.931932605145512,93.82551632652144,243.55457736893214
2021-04-22 02:09:58.697829,-0.0009873425588011742,0.0036418887320905924,0.01827726513147354,0.26154837012290955,0.23081061244010925,0.08062733709812164,22.40000153402868,36.3810982367213,1.2377442047976468,-30.577861785888672,9.291059494018555,18.91936492919922,37.138548534407164,29.76196993474263,10.424454131100546,92.69099458462564,242.77368184112458,243.46944589111712,9.975545924316982,93.74216752807978,243.37596792213634,9.892665847607109,94.00467218845087,243.5737702004999
2021-04-22 02:09:59.197577,-0.0012341781985014677,0.004127473570406437,0.019495747983455658,0.2646026909351349,0.228672593832016,0.07940560579299927,22.447879452563175,36.42381082469597,1.2370363714669796,-30.89907455444336,9.653631210327148,18.979074478149414,37.52533373486762,29.776765022308968,10.470463992897045,92.79316738441986,242.66564190883332,243.227028817095,10.003660690488047,93.73677850882463,243.1254229230019,9.897073880942706,94.08375894885044,243.3836040736284
2021-04-22 02:09:59.697535,-0.0014810138382017612,0.0038846812676638365,0.015352901071310043,0.26612985134124756,0.2280617207288742,0.07971104234457016,22.447879452563175,36.42381082469597,1.2370363714669796,-30.96396827697754,9.88497257232666,19.28660011291504,37.79488005178501,29.776765022308968,10.527472166804557,92.79762066775871,242.65612062513034,243.2611114610534,10.069890473548723,93.72592533823348,243.1763078323185,9.966953546341108,94.0593751735135,243.42402513313652
2021-04-22 02:10:00.197621,-0.0007405069191008806,0.0048558516427874565,0.016815081238746643,0.26154837012290955,0.23172691464424133,0.07971104234457016,22.495745418266623,36.4665575636165,1.2363287874307816,-30.894493103027344,9.736883163452148,19.673742294311523,37.89898064189463,29.791574117759062,10.535509591910369,92.99170049302462,242.5195305021084,243.15539379307992,10.087403078580635,93.9406869763062,243.05309121969148,9.987466311965948,94.25721160282292,243.29149214248162
2021-04-22 02:10:00.697562,-0.0014810138382017612,0.005098644178360701,0.01803356595337391,0.2600212097167969,0.22989431023597717,0.07848931103944778,22.495745418266623,36.4665575636165,1.2363287874307816,-30.842267990112305,9.794451713562012,19.534744262695312,37.79924619026299,29.791574117759062,10.542973281125901,92.90781210963853,242.3596221132601,243.0232023118835,10.076033374933504,93.94055720271196,242.9457343063172,9.993881567143882,94.2029184291105,243.14460209419133
2021-04-22 02:10:01.197724,-0.0014810138382017612,0.004370266571640968,0.01876465603709221,0.2624646723270416,0.228672593832016,0.07971104234457016,22.543597723591734,36.509335038388286,1.2356214727843287,-30.654014587402344,9.315289497375488,18.930583953857422,37.21303854267525,29.806396721145862,10.485576640209345,93.10663208618843,242.37158860468594,243.04376118128522,10.04351313674778,94.0957049497088,242.9285905315005,9.954242564295713,94.37648036610969,243.14008050896075
2021-04-22 02:10:01.971857,-0.0007405069191008806,0.004613059107214212,0.019495747983455658,0.2587994933128357,0.22653456032276154,0.08001647144556046,22.591436368538503,36.552143249011344,1.234914427353984,-30.970884323120117,9.954776763916016,19.077041625976562,37.7124220035618,29.82123275609197,8.62598592168709,97.98458926687145,245.72310778889783,246.29936401898266,8.062855607639754,99.08705010080321,246.24783024169488,7.959933194584125,99.34856438374466,246.4412953499355
2021-04-22 02:10:02.543635,-0.0014810138382017612,0.004370266571640968,0.01876465603709221,0.2633809745311737,0.2277562916278839,0.08154363930225372,22.591436368538503,36.552143249011344,1.234914427353984,-30.98875617980957,9.81550121307373,19.15670394897461,37.73097374603785,29.82123275609197,8.247428663354656,98.39298676791402,246.0917672493493,246.70329457630802,7.67633349496144,99.29248170046968,246.65249845945064,7.559897552632941,99.58320187230211,246.8672737579017
2021-04-22 02:10:03.153439,-0.0017278495943173766,0.0036418887320905924,0.017789868637919426,0.2624646723270416,0.22958888113498688,0.08001647144556046,22.63926135310693,36.594989025674835,1.2342076688965053,-31.099382400512695,10.079848289489746,19.4560489654541,38.04356408879951,29.836081769447432,7.5593622365567406,99.18054856035151,246.9387926687009,247.5172208989418,6.99678687537947,100.23962403267535,247.48455893433078,6.879909958962682,100.51809767532595,247.68935532640444
2021-04-22 02:10:03.735016,-0.0012341781985014677,0.004370266571640968,0.017789868637919426,0.2630755305290222,0.22622913122177124,0.07971104234457016,22.63926135310693,36.594989025674835,1.2342076688965053,-31.00777816772461,10.030317306518555,19.800960540771484,38.13354967093221,29.836081769447432,7.147495853189448,99.64265183883789,247.37048794500237,248.05738640945225,6.545390772190729,100.66599176142422,248.0138644440609,6.428481412375383,100.9350397430202,248.2125956281516
2021-04-22 02:10:04.234749,-0.0014810138382017612,0.004370266571640968,0.019252052530646324,0.2642972767353058,0.2283671498298645,0.08123820275068283,22.68707267729702,36.637862123095005,1.2335011703318128,-30.736696243286133,9.547237396240234,19.530027389526367,37.64726029457998,29.85094425015369,7.589634488731884,98.21932237807728,246.59453747415392,247.17377849690604,7.011104232540287,99.24110501753285,247.15010506124275,6.912676083958526,99.48714209181504,247.33403522540203
2021-04-22 02:10:04.734649,-0.0012341781985014677,0.0029135108925402164,0.017546173185110092,0.2633809745311737,0.22958888113498688,0.08062733709812164,22.68707267729702,36.637862123095005,1.2335011703318128,-30.684297561645508,10.042353630065918,19.62148666381836,37.78065274953973,29.85094425015369,7.684976245582446,97.61502822144958,246.3178738316334,246.90086462823982,7.126251830436593,98.60107531116763,246.8637425501008,7.020371945470348,98.87626363282745,247.07009622530524
2021-04-22 02:10:05.234765,-0.0017278495943173766,0.0033990959636867046,0.017789868637919426,0.2682678997516632,0.22958888113498688,0.08032190799713135,22.73487034110877,36.68077278655561,1.2327949583716042,-31.485746383666992,9.859837532043457,19.823062896728516,38.49055006235357,29.865819556456117,7.731786093285482,97.35151952327048,246.31294243505263,246.8285739060644,7.170081581227388,98.32338714027159,246.76587276948368,7.037714649546657,98.65917973043693,247.01867856123337
2021-04-22 02:10:05.734719,-0.0004936712794005871,0.004613059107214212,0.020714230835437775,0.26154837012290955,0.23172691464424133,0.07879474759101868,22.73487034110877,36.68077278655561,1.2327949583716042,-31.332275390625,9.595423698425293,19.853132247924805,38.313581105919326,29.865819556456117,7.923962003320253,96.70685894864799,245.87227912037093,246.41738968784045,7.367468071825233,97.7021199635564,246.38640794976527,7.247427497162259,98.01487432565129,246.6213937779704
2021-04-22 02:10:06.234718,-0.0014810138382017612,0.0048558516427874565,0.019495747983455658,0.2627701163291931,0.23019975423812866,0.08001647144556046,22.78265434454218,36.72371418586748,1.2320890149101622,-31.382352828979492,9.915149688720703,19.974679946899414,38.498702593897384,29.880707989724264,8.320448508223969,96.00563757750864,245.41937610669655,246.04612792531526,7.79609488564209,96.95237692855328,246.04430426480687,7.681328070792013,97.26317785654554,246.2763736022364
2021-04-22 02:10:06.734746,-0.0009873425588011742,0.0038846812676638365,0.018520960584282875,0.26185381412506104,0.2289780229330063,0.07879474759101868,22.78265434454218,36.72371418586748,1.2320890149101622,-31.205150604248047,9.634869575500488,19.772518157958984,38.17780258576343,29.880707989724264,8.485589675750184,95.76903299447022,245.21659462042805,245.81661307863533,7.955257076323605,96.80761106909486,245.74294265824756,7.863620697097775,97.0582380304993,245.9325692001746
2021-04-22 02:10:07.234633,-0.0012341781985014677,0.005098644178360701,0.01803356595337391,0.2627701163291931,0.23019975423812866,0.07879474759101868,22.830424687597247,36.766689736125194,1.2313833487245056,-31.237424850463867,9.725175857543945,19.571247100830078,38.12334547006969,29.895609285393462,8.615174586004605,95.50139886203245,244.93652954370083,245.52360479343093,8.09495408164423,96.4439444769267,245.47899682796157,8.002464782545795,96.70377170314315,245.67350695514523
2021-04-22 02:10:07.734550,-0.0009873425588011742,0.004370266571640968,0.017546173185110092,0.26124295592308044,0.22928345203399658,0.08001647144556046,22.830424687597247,36.766689736125194,1.2313833487245056,-30.964134216308594,9.617055892944336,19.397798538208008,37.78279978961978,29.895609285393462,8.70207679036197,95.59045086843108,244.8852484834124,245.30283258888863,8.247999837923997,96.34483160188064,245.25377817026958,8.146654344792994,96.63538101898381,245.47129920476698
2021-04-22 02:10:08.234533,-0.0019746851176023483,0.0029135108925402164,0.018520960584282875,0.26124295592308044,0.22989431023597717,0.08032190799713135,22.878179662726684,36.809696022234185,1.2306779799319898,-31.299448013305664,9.753193855285645,20.051855087280273,38.42989889080758,29.910522938221597,8.904588484158262,95.13310823179619,244.56846430970717,245.11826721713652,8.391438933136143,96.1436073987429,245.05776540146854,8.29394737424432,96.42342658865998,245.26604519001893
2021-04-22 02:10:08.734688,-0.0014810138382017612,0.004370266571640968,0.01584029383957386,0.2624646723270416,0.23111605644226074,0.07910017669200897,22.878179662726684,36.809696022234185,1.2306779799319898,-31.247928619384766,9.620118141174316,20.969528198242188,38.841998261021416,29.910522938221597,9.058175532929754,94.81759447327661,244.19747575474878,244.79294530696882,8.530691976160718,95.78589673153098,244.71982130171466,8.442618394360695,96.0413389763003,244.91028795690966
2021-04-22 02:10:09.234650,-0.0014810138382017612,0.0036418887320905924,0.017789868637919426,0.2627701163291931,0.23050519824028015,0.07971104234457016,22.925922685025075,36.85273645928902,1.22997285879881,-31.3042049407959,9.856225967407227,19.850181579589844,38.3552883712094,29.92544992064772,9.157182540043674,94.5152356590985,244.0994625401591,244.77453111696647,8.645914706137892,95.57489852769095,244.71064152747016,8.558442180984832,95.8262563193366,244.89848539002386
2021-04-22 02:10:09.734674,-0.0017278495943173766,0.004370266571640968,0.01827726513147354,0.26185381412506104,0.2289780229330063,0.08093277364969254,22.925922685025075,36.85273645928902,1.22997285879881,-31.414751052856445,9.933711051940918,20.416942596435547,38.761020935503524,29.92544992064772,9.216617992427478,94.5409718118911,243.95300962397567,244.52749683506545,8.731678830224805,95.49877606939116,244.47144830273632,8.62289952995589,95.81068348802897,244.7080597159639
2021-04-22 02:10:10.234604,-0.0014810138382017612,0.005098644178360701,0.019008353352546692,0.26093751192092896,0.22653456032276154,0.08062733709812164,22.97365033939783,36.895811047289705,1.2292680436427508,-31.583433151245117,10.336872100830078,20.141204833984375,38.85913414646039,29.940388918869694,9.282146827324581,94.39695044305222,243.78159919656503,244.39078376863847,8.776949324043649,95.33810952954495,244.32275508450516,8.693487827480679,95.5809022639714,244.5057768335048
2021-04-22 02:10:10.734710,-0.0009873425588011742,0.005341436713933945,0.01730247773230076,0.257272332906723,0.23203235864639282,0.08001647144556046,22.97365033939783,36.895811047289705,1.2292680436427508,-31.448307037353516,9.95406723022461,19.559782028198242,38.34924435931062,29.940388918869694,9.332812316814088,94.3485517225935,243.66730281099404,244.26383787272462,8.828072436207549,95.33371771790864,244.19957945301314,8.744311265094742,95.5840646415571,244.38859810810408
2021-04-22 02:10:11.234574,-0.0004936712794005871,0.004613059107214212,0.019739443436264992,0.26185381412506104,0.22989431023597717,0.07879474759101868,23.021364333392246,36.93891978623624,1.2285635050253563,-31.71358299255371,9.498990058898926,19.420475006103516,38.381466983784556,29.955340476640774,9.397949269607562,93.8090350800542,243.39068014960853,243.98695566415063,8.897009535500487,94.87134806204462,243.9437069063261,8.804731118492676,95.1515087614202,244.15504661962467
2021-04-22 02:10:11.734532,-0.0014810138382017612,0.005827021785080433,0.016815081238746643,0.26124295592308044,0.228672593832016,0.07910017669200897,23.021364333392246,36.93891978623624,1.2285635050253563,-31.453170776367188,9.539262771606445,19.532739639282227,38.23385154452874,29.955340476640774,9.465966854683488,93.84635523367915,243.1429628487905,243.71788719198716,8.957998002146823,94.80838737827544,243.6450637150565,8.874986444295427,95.05551045263567,243.83109074729094
2021-04-22 02:10:12.234980,-0.0009873425588011742,0.0036418887320905924,0.017058778554201126,0.2624646723270416,0.23019975423812866,0.08032190799713135,23.069064667008323,36.98206267612863,1.2278592427596904,-31.675825119018555,9.831311225891113,19.268268585205078,38.35725161768737,29.970304519053954,9.440713937774659,93.7945482488246,243.07390963628166,243.67966545339175,8.964395328078187,94.73981227900852,243.5938509566597,8.881555378729686,94.98647090050518,243.78135330975493
2021-04-22 02:10:12.734522,-0.0017278495943173766,0.004370266571640968,0.018520960584282875,0.2630755305290222,0.2289780229330063,0.07940560579299927,23.069064667008323,36.98206267612863,1.2278592427596904,-31.266342163085938,9.751571655273438,19.057188034057617,37.89266047366596,29.970304519053954,9.551824040097841,93.60202570668945,243.0688006547825,243.64958530028701,9.076544472928857,94.55070483145838,243.6068829575961,8.991629853619965,94.80902258586825,243.80202146218338
2021-04-22 02:10:13.234771,-0.0009873425588011742,0.004613059107214212,0.019495747983455658,0.26154837012290955,0.23081061244010925,0.07940560579299927,23.116749632698767,37.025236301872276,1.2271552769787224,-31.440662384033203,10.0247220993042,19.876134872436523,38.52364263387259,29.985280538849413,9.585725684043199,93.42263078813906,242.89039611366178,243.5385947262743,9.104070989057655,94.43733052142534,243.46333970199913,9.017565789445797,94.69833254017902,243.6614834898212
2021-04-22 02:10:13.734999,-0.0014810138382017612,0.0038846812676638365,0.016815081238746643,0.26063206791877747,0.2277562916278839,0.07910017669200897,23.116749632698767,37.025236301872276,1.2271552769787224,-31.756378173828125,10.057459831237793,19.904132843017578,38.80456876720369,29.985280538849413,9.702625225461613,93.3270969322181,242.67732153231407,243.35464407154754,9.218826704850331,94.35922730826624,243.29276255766723,9.137079585769033,94.60577664673619,243.48143970329966
2021-04-22 02:10:14.234590,-0.0012341781985014677,0.004613059107214212,0.019495747983455658,0.2633809745311737,0.23081061244010925,0.08001647144556046,23.164422645558165,37.06844749365636,1.22645156685773,-31.75812339782715,9.520546913146973,20.228023529052734,38.83802455286519,30.000269326024807,9.776283693018323,93.28786432562555,242.6972930054472,243.31139531372304,9.292340884660826,94.23463099742686,243.22208376013594,9.207646538952666,94.4942806387249,243.4176320760734
2021-04-22 02:10:14.734720,-0.0012341781985014677,0.004370266571640968,0.019008353352546692,0.2639918327331543,0.2289780229330063,0.08093277364969254,23.164422645558165,37.06844749365636,1.22645156685773,-31.50775146484375,9.609855651855469,20.431676864624023,38.762625653073016,30.000269326024807,9.827096885348633,93.02303057074747,242.57227322287926,243.2110734951939,9.3522612804757,94.03905536073272,243.11665296010761,9.25294008465996,94.34918693018632,243.35245841101312
2021-04-22 02:10:15.234571,-0.0009873425588011742,0.0033990959636867046,0.01827726513147354,0.2594103515148163,0.22928345203399658,0.07879474759101868,23.21208029049193,37.111689421291715,1.2257481528527505,-31.41547966003418,9.413774490356445,20.205062866210938,38.52007369999236,30.01526994057034,9.883877955466241,92.90242309038338,242.5496243155915,243.13014941390756,9.418776223934223,93.92697878664198,243.05591891800788,9.336454515188999,94.17802921977497,243.24639923358117
2021-04-22 02:10:15.734612,-0.0007405069191008806,0.0036418887320905924,0.01730247773230076,0.26093751192092896,0.22958888113498688,0.08032190799713135,23.21208029049193,37.111689421291715,1.2257481528527505,-31.73670768737793,9.569559097290039,20.020788192749023,38.72501821832391,30.01526994057034,9.969871744663994,92.74329334310043,242.27403984295984,242.870397319772,9.486577804277648,93.75925666138315,242.77713791684462,9.384255594095332,94.07333608017701,243.01466457542097
2021-04-22 02:10:16.234775,-0.0004936712794005871,0.0033990959636867046,0.017058778554201126,0.2627701163291931,0.22745086252689362,0.08001647144556046,23.25972427504735,37.154965499872915,1.225045014455101,-31.67902946472168,8.96955680847168,20.245710372924805,38.65103679943735,30.030282740934645,10.037830419358329,92.70725043485027,242.1613417216546,242.81984025953554,9.56740626291558,93.6462921627003,242.73847904614234,9.488165823259676,93.89885889782903,242.92976532403773
2021-04-22 02:10:16.734650,-0.0,0.004127473570406437,0.019983140751719475,0.2639918327331543,0.228672593832016,0.0824599340558052,23.25972427504735,37.154965499872915,1.225045014455101,-31.604602813720703,9.095952033996582,19.86823081970215,38.42309017144211,30.030282740934645,10.069860591471103,92.70980492559985,242.02686895727538,242.670409380874,9.590164453230061,93.61610272656885,242.5854281672207,9.511443107951079,93.86511776332917,242.77321738826103
2021-04-22 02:10:17.234512,-0.0014810138382017612,0.004370266571640968,0.017058778554201126,0.2639918327331543,0.2280617207288742,0.07940560579299927,23.307352891677144,37.19827572939996,1.2243421807296198,-31.66791343688965,9.428145408630371,20.07413673400879,38.66157825164792,30.04530702749319,10.07562868622518,92.82651919813704,241.92967536538612,242.50257797258845,9.644789744890884,93.86530217843676,242.44083306249155,9.563309003187218,94.12206264971589,242.63613549161886
2021-04-22 02:10:17.734667,-0.0007405069191008806,0.005827021785080433,0.017789868637919426,0.2646026909351349,0.2283671498298645,0.08062733709812164,23.307352891677144,37.19827572939996,1.2243421807296198,-31.8748722076416,9.58054256439209,19.79279136657715,38.72400888547649,30.04530702749319,10.07975155916293,92.91983324257775,241.76592841022423,242.36306452860177,9.59565592532275,93.88749346305013,242.2609668608884,9.5159254195939,94.13894004715499,242.44719879879798
2021-04-22 02:10:18.235836,-0.0017278495943173766,0.0048558516427874565,0.01827726513147354,0.2627701163291931,0.2283671498298645,0.07971104234457016,23.354967847928595,37.24162010987286,1.2236396222339287,-32.03901672363281,9.578533172607422,20.180744171142578,39.05776908192618,30.060343350763294,10.07367439834891,93.18024103487366,241.9604931789212,242.60444341387,9.589762325842676,94.09025445875113,242.50943548251513,9.507270716141848,94.35161164734167,242.70298938321497
2021-04-22 02:10:18.735702,-0.0014810138382017612,0.004127473570406437,0.016815081238746643,0.2627701163291931,0.2289780229330063,0.07971104234457016,23.354967847928595,37.24162010987286,1.2236396222339287,-32.048221588134766,9.152486801147461,20.009286880493164,38.87451714263782,30.060343350763294,10.210891191227173,92.98311494523792,241.67223187519,242.2532487471263,9.760494003204547,93.87448195268126,242.17955100598186,9.661545906472218,94.19028940933514,242.41552038142748
2021-04-22 02:10:19.235591,-0.0009873425588011742,0.0036418887320905924,0.019495747983455658,0.2594103515148163,0.2280617207288742,0.07971104234457016,23.402567436254415,37.2850020563862,1.222937376944985,-32.0726318359375,9.269262313842773,20.877302169799805,39.37555945781018,30.075390818945465,10.296427357750536,92.81908795232006,241.72423693553048,242.2551612000939,9.80418843087241,93.75246745334815,242.21743123511874,9.704643546361352,94.07076792904908,242.4546846861283
2021-04-22 02:10:19.735739,-0.00024683563970029354,0.005098644178360701,0.017546173185110092,0.2600212097167969,0.228672593832016,0.08032190799713135,23.402567436254415,37.2850020563862,1.222937376944985,-32.10169219970703,9.350290298461914,20.236753463745117,39.08289602246285,30.075390818945465,10.228567720799166,92.79712889413847,241.50900401440504,242.16390987278254,9.720100264453091,93.83519470457534,242.03361718417537,9.636448376367007,94.09580740254636,242.23111893421546
2021-04-22 02:10:20.236724,-0.0012341781985014677,0.004127473570406437,0.016327690333127975,0.26124295592308044,0.22989431023597717,0.07940560579299927,23.450155071749187,37.3284147387508,1.2222353683367477,-31.96762466430664,9.231197357177734,19.69182014465332,38.66408943625242,30.090450994449032,10.250246741224787,92.89609833521196,241.68555074407152,242.227444292442,9.797003925639203,93.83685444054366,242.1408648145229,9.681299667325542,94.20007707041577,242.41343034354145
2021-04-22 02:10:20.736524,-0.002221520757302642,0.0036418887320905924,0.019008353352546692,0.26063206791877747,0.23142147064208984,0.08032190799713135,23.450155071749187,37.3284147387508,1.2222353683367477,-31.969532012939453,9.39804458618164,19.6136531829834,38.66613001520288,30.090450994449032,10.349199106825347,92.69320756591672,241.63707006134277,242.26106248353682,9.893133715565256,93.66867469261044,242.17076738270924,9.813556035319083,93.92521659783611,242.36111109449917
2021-04-22 02:10:21.236721,-0.0014810138382017612,0.0031563034281134605,0.01827726513147354,0.26063206791877747,0.2280617207288742,0.07910017669200897,23.497725631771033,37.37186157206125,1.22153369289739,-31.974916458129883,9.493794441223145,19.941293716430664,38.86106805636641,30.10552172937272,10.360466357634929,92.55708872594754,241.5933568506547,242.24637757682126,9.907349046775344,93.46861845182076,242.13292813470736,9.80535468567319,93.79232160715517,242.3750173596493
2021-04-22 02:10:21.736677,-0.0009873425588011742,0.0031563034281134605,0.016815081238746643,0.2639918327331543,0.22745086252689362,0.08001647144556046,23.497725631771033,37.37186157206125,1.22153369289739,-32.07919692993164,9.705159187316895,19.890714645385742,38.97313843693705,30.10552172937272,10.359775654755111,92.54603064968128,241.6938425937239,242.30776731708136,9.932584888211249,93.494620981991,242.2136882914536,9.850614934208279,93.75885368022212,242.41207796608577
2021-04-22 02:10:22.236575,-0.0012341781985014677,0.0031563034281134605,0.016083991155028343,0.26093751192092896,0.228672593832016,0.08032190799713135,23.54528253141454,37.415342556317555,1.2208322919282615,-32.01230239868164,9.715642929077148,19.96550178527832,38.958984636767894,30.120604205263806,10.32289092568975,92.48653970201048,241.69645172598686,242.30085516564128,9.874891134065798,93.50696313382122,242.1686090429315,9.795613982143106,93.7592225104373,242.3582697358044
2021-04-22 02:10:22.736702,-0.0012341781985014677,0.0048558516427874565,0.01657138578593731,0.2633809745311737,0.22989431023597717,0.07940560579299927,23.54528253141454,37.415342556317555,1.2208322919282615,-32.01404571533203,9.771329879760742,20.112579345703125,39.0498893547687,30.120604205263806,10.309266405842868,92.56553766995084,241.72695535082016,242.27152633334526,9.84392305636896,93.49104879305509,242.16419674072768,9.755086200929188,93.7723637944004,242.37677954845515
2021-04-22 02:10:23.236685,-0.0012341781985014677,0.0036418887320905924,0.016815081238746643,0.26551899313926697,0.228672593832016,0.07910017669200897,23.592825770679703,37.458861106614286,1.220131174137257,-31.890972137451172,9.75509262084961,20.494972229003906,39.14383505203192,30.13569815774696,10.27519571471555,92.5488515178085,241.74433135206866,242.31574497803192,9.824913786135168,93.561631967938,242.21627010295987,9.721513259837637,93.88642795353961,242.46308581880743
2021-04-22 02:10:23.736527,-0.0009873425588011742,0.0036418887320905924,0.017546173185110092,0.2600212097167969,0.23111605644226074,0.07940560579299927,23.592825770679703,37.458861106614286,1.220131174137257,-32.2385139465332,9.646183967590332,20.063556671142578,39.17801619420721,30.13569815774696,10.24700240136903,92.48408083390927,241.5597796406949,242.23308602869642,9.801150704239047,93.43682392123435,242.11159062374026,9.721702797587104,93.69064741117036,242.30465275081983
2021-04-22 02:10:24.236667,-0.0014810138382017612,0.005098644178360701,0.019495747983455658,0.2636864185333252,0.2280617207288742,0.08032190799713135,23.64035364201924,37.502413807856875,1.2194303596822327,-31.937711715698242,9.62218952178955,20.104799270629883,38.946205393344876,30.150803074822928,10.20190180850579,92.53530725268438,241.53755420513568,242.15522187215828,9.763255107176525,93.48658867952706,242.04360292074193,9.655052104118829,93.82990813815776,242.3000355429409
2021-04-22 02:10:24.736542,-0.0009873425588011742,0.004613059107214212,0.017789868637919426,0.2630755305290222,0.2277562916278839,0.08001647144556046,23.64035364201924,37.502413807856875,1.2194303596822327,-31.840435028076172,9.553061485290527,20.281768798828125,38.94129468993037,30.150803074822928,10.16868403725108,92.71524858636836,241.44880272706052,242.02824865548774,9.682496657977586,93.6530813707353,241.92650615761124,9.600123722813585,93.91432244610995,242.12354345478775
2021-04-22 02:10:25.236577,-0.0007405069191008806,0.0048558516427874565,0.017058778554201126,0.2636864185333252,0.2280617207288742,0.07971104234457016,23.687867852980432,37.545997244950726,1.218729810224734,-31.98952865600586,9.123141288757324,20.45911407470703,39.05300243681558,30.165919705641006,10.1833817505713,92.76598323152321,241.30796422637488,241.91542759077748,9.728488590527514,93.72276979083694,241.84067800050087,9.646497292183387,93.98562962104488,242.04125333566745
2021-04-22 02:10:25.736657,-0.0012341781985014677,0.004370266571640968,0.01827726513147354,0.2594103515148163,0.2277562916278839,0.07910017669200897,23.687867852980432,37.545997244950726,1.218729810224734,-31.984560012817383,9.028364181518555,20.189006805419922,38.88597992589278,30.165919705641006,10.218462455922133,92.76586028811815,241.25141026004718,241.92809076149868,9.725103378020126,93.77980870059571,241.84562305745993,9.643028409858667,94.03655551149649,242.04216858101623
2021-04-22 02:10:26.236758,-0.0007405069191008806,0.0033990959636867046,0.018520960584282875,0.26185381412506104,0.23081061244010925,0.07879474759101868,23.735366696015994,37.58961824808502,1.2180295726155579,-32.38423538208008,8.714272499084473,20.368864059448242,39.23732750255233,30.181046961932477,10.232709376757134,92.56739548140509,241.07857915328918,241.78303120390595,9.78276212744608,93.46473207418302,241.70306334910345,9.70430715954473,93.71580299788353,241.89174049473587
2021-04-22 02:10:26.736707,-0.0012341781985014677,0.004127473570406437,0.01730247773230076,0.26215922832489014,0.23142147064208984,0.0775730162858963,23.735366696015994,37.58961824808502,1.2180295726155579,-32.279327392578125,8.921732902526855,20.46733856201172,39.24874829486014,30.181046961932477,10.35063088523011,92.48485264528549,241.108140212017,241.64812130741984,9.89385686184363,93.48315309437454,241.60119790782187,9.812499063545024,93.74349941496793,241.79777075213485
2021-04-22 02:10:27.236683,-0.0014810138382017612,0.004127473570406437,0.015596598386764526,0.26154837012290955,0.2277562916278839,0.07848931103944778,23.782850171125922,37.633276817259734,1.217329646652472,-32.30796432495117,8.997450828552246,20.3848876953125,39.24668554903759,30.196184769205967,10.477511894346852,92.63827918461148,241.11361802373133,241.81286547020056,9.95316595572779,93.56160464718131,241.70160168862105,9.870851077171736,93.82152749604614,241.9002782311984
2021-04-22 02:10:27.736665,-0.0012341781985014677,0.004370266571640968,0.017058778554201126,0.2597157955169678,0.23294863104820251,0.07971104234457016,23.782850171125922,37.633276817259734,1.217329646652472,-32.69666290283203,8.796086311340332,20.104642868041992,39.37816100619089,30.196184769205967,10.527770987580745,92.63012393874249,241.09379681475997,241.6939108956156,10.0629031900278,93.62749548210442,241.59326122800633,9.983353684311954,93.88293772687373,241.78553105314217
2021-04-22 02:10:28.236717,-0.0012341781985014677,0.004613059107214212,0.01657138578593731,0.2600212097167969,0.228672593832016,0.07910017669200897,23.83031998585751,37.67696612228572,1.2166299851135243,-32.45378875732422,9.024227142333984,19.884796142578125,39.11636739081674,30.21133407184576,10.605163007292512,92.83642980262272,240.92540533096246,241.50747405203094,10.14616661110484,93.8787576511017,241.42741057458005,10.046082995422998,94.19826024009654,241.66740976163595
2021-04-22 02:10:28.736554,-0.0012341781985014677,0.004613059107214212,0.01876465603709221,0.26032665371894836,0.23050519824028015,0.08001647144556046,23.83031998585751,37.67696612228572,1.2166299851135243,-32.37413024902344,8.741032600402832,19.701181411743164,38.892499396676136,30.21133407184576,10.675085361373226,92.88756742893861,240.78799558524014,241.40507585599414,10.19390707208229,93.92717686212791,241.3316923035515,10.104504164715054,94.2074946558544,241.5408326959373
2021-04-22 02:10:29.236628,-0.0014810138382017612,0.0033990959636867046,0.016327690333127975,0.26185381412506104,0.23142147064208984,0.08123820275068283,23.877774432663465,37.720692993352145,1.2159306348283545,-32.200801849365234,8.444236755371094,20.5738468170166,39.134127650593,30.2264937791584,10.662553671793546,93.14947103266275,240.6126919500026,241.27773380910838,10.186125779070354,94.11189249804173,241.1626451215937,10.104069593929113,94.36995070526315,241.35513351278297
2021-04-22 02:10:29.736641,-0.0007405069191008806,0.004370266571640968,0.016815081238746643,0.26185381412506104,0.22958888113498688,0.07879474759101868,23.877774432663465,37.720692993352145,1.2159306348283545,-32.49342727661133,8.295928001403809,20.83995819091797,39.48352941397354,30.2264937791584,10.594423388596315,93.27013998472937,240.22999645080677,240.94517189842048,10.148498266932753,94.2296791102786,240.82483762562322,10.068390393252258,94.4859204871808,241.01671129978718
2021-04-22 02:10:30.236664,-0.0012341781985014677,0.005098644178360701,0.019739443436264992,0.2591049075126648,0.228672593832016,0.07971104234457016,23.925215219091083,37.764454015364414,1.215231557462494,-32.26351547241211,8.564979553222656,20.42420768737793,39.133637258027086,30.241664645257156,10.595917492477255,93.31448840301026,240.20831743038116,240.82172305936166,10.121612081038645,94.28932715230033,240.721018750239,10.01421504030301,94.62263355360777,240.96821695668012
2021-04-22 02:10:30.736661,-0.0019746851176023483,0.0031563034281134605,0.01827726513147354,0.2646026909351349,0.22958888113498688,0.08001647144556046,23.925215219091083,37.764454015364414,1.215231557462494,-32.028263092041016,8.404175758361816,20.395671844482422,38.88988604840912,30.241664645257156,10.659474964025161,93.02600170303643,240.1903813536207,240.84222728725007,10.198035921435563,94.04767505946528,240.77522313149223,10.11726722695287,94.29755753025019,240.96276646572244
