Date/Time,a_x,a_y,a_z,w_x,w_y,w_z,Lat ,Long,Polar_angle,B_x,B_y,B_z,B_total,B_theoretical,Pitch,Roll,Yaw,North_compass_only,Pitch_accel_only,Roll_accel_only,Yaw_accel_only,Pitch_gyro_only,Roll_gyro_only,Yaw_gyro_only
2021-04-22 02:55:54.888627,-0.0012341781985014677,0.0048558516427874565,0.01730247773230076,0.26124295592308044,0.228672593832016,0.07910017669200897,-21.044070672450452,-156.60697593187783,1.9109589090264862,-1.5193076133728027,41.79488754272461,39.894378662109375,57.79863639541003,29.911458828746213,28.058441016074475,107.58864803242061,1.1531954790866128,2.8551099999586556,27.28448325291636,108.65629539215281,2.439694479543895,27.11041929701317,109.07418002595253,2.685723869863278
2021-04-22 02:55:55.388591,-0.0014810138382017612,0.0048558516427874565,0.015596598386764526,0.2636864185333252,0.23142147064208984,0.08093277364969254,-21.044070672450452,-156.60697593187783,1.9109589090264862,-1.879615068435669,42.084312438964844,39.41158676147461,57.687914482351864,29.911458828746213,28.04511531700378,107.58276040935606,1.1391604008375886,2.833185946496561,27.2662295723595,108.71185898105087,2.3823038150428633,27.136879449857798,109.02563104133209,2.5678473979501404
2021-04-22 02:55:55.888506,-0.0004936712794005871,0.004370266571640968,0.019252052530646324,0.2639918327331543,0.22928345203399658,0.08062733709812164,-21.092266194781356,-156.5651888345357,1.9116657863282676,-1.4596480131149292,42.254154205322266,40.112388610839844,58.27990940278114,29.926424176802307,28.09350037708415,107.6840179638015,1.0485115175553545,2.8813750655251167,27.296740027381947,108.80654589351475,2.4454817842050116,27.137845921625356,109.18463784520998,2.671743966736143
2021-04-22 02:55:56.388675,-0.0014810138382017612,0.004370266571640968,0.017546173185110092,0.26154837012290955,0.22928345203399658,0.08032190799713135,-21.092266194781356,-156.5651888345357,1.9116657863282676,-1.5120211839675903,42.06948471069336,39.88196563720703,57.98878283747117,29.926424176802307,28.00649059724736,107.57300006903212,1.0147862845896531,2.873129746536442,27.196392595643413,108.78039992937195,2.3445817474739403,27.067889416598792,109.08853708358791,2.5310072785577957
2021-04-22 02:55:56.888527,-0.0012341781985014677,0.004370266571640968,0.017058778554201126,0.26093751192092896,0.22958888113498688,0.07848931103944778,-21.14044976428121,-156.5233744164369,1.9123723998304183,-1.7855265140533447,42.229225158691406,40.21466827392578,58.34136702904497,29.941402523246406,27.944438328637794,107.64003154554662,1.1009687577632277,2.839836202870626,27.197102935317094,108.73909094527171,2.375525919508683,27.066367991961172,109.05026753366832,2.560893411601421
2021-04-22 02:55:57.388763,-0.0014810138382017612,0.004127473570406437,0.015109204687178135,0.2627701163291931,0.23233777284622192,0.08093277364969254,-21.14044976428121,-156.5233744164369,1.9123723998304183,-2.0014398097991943,42.25931930541992,39.42107009887695,57.826262175678075,29.941402523246406,27.857320973321574,107.69997328570265,1.1859054684652155,2.9129992682690986,27.077909304111202,108.87260748316712,2.459837134293086,26.939830199850224,109.19810014806407,2.6563077392119143
2021-04-22 02:55:57.888739,-0.0012341781985014677,0.005341436713933945,0.017546173185110092,0.26063206791877747,0.23019975423812866,0.08093277364969254,-21.188621380950018,-156.48151901720306,1.9130787113455252,-1.5423685312271118,42.35436248779297,39.531917572021484,57.9572551916892,29.95639297856648,27.880316512709715,107.52766810351073,0.9765269799538266,2.7133995829367583,27.079814926889632,108.66714856274396,2.2351766311223225,26.951228078027682,108.97859152851821,2.4232057625572496
2021-04-22 02:55:58.388748,-0.0019746851176023483,0.004127473570406437,0.01730247773230076,0.26215922832489014,0.2283671498298645,0.07971104234457016,-21.188621380950018,-156.48151901720306,1.9130787113455252,-1.6802351474761963,42.20418930053711,39.84690856933594,58.06714137271959,29.95639297856648,27.82518834837125,107.57146327646886,0.953630158143534,2.712787854119219,27.07616248323097,108.6756589784498,2.250784467149448,26.912166226164377,109.07013655396389,2.4891015066788285
2021-04-22 02:55:58.888726,-0.0009873425588011742,0.004370266571640968,0.01827726513147354,0.2630755305290222,0.22928345203399658,0.08062733709812164,-21.236779337240485,-156.43964995759086,1.9137847684394202,-1.286269187927246,42.07604217529297,40.5218620300293,58.43003607684641,29.971396472781773,27.873407776364246,107.66699030220066,0.953327922272761,2.678240543853883,27.062597727539323,108.87021008676844,2.2664635932760353,26.934352388135874,109.17634599555758,2.4498654849916903
2021-04-22 02:55:59.388592,-0.0009873425588011742,0.004127473570406437,0.019008353352546692,0.2633809745311737,0.23019975423812866,0.08184906840324402,-21.236779337240485,-156.43964995759086,1.9137847684394202,-1.5560581684112549,41.868141174316406,40.65022277832031,58.37639226899038,29.971396472781773,27.930436440839266,107.55795999247975,0.9078549773780491,2.661680963654599,27.11128160839588,108.70657924482245,2.226273266095799,26.944633530384035,109.10607017918733,2.465896579303945
2021-04-22 02:55:59.888774,-0.0007405069191008806,0.0036418887320905924,0.017789868637919426,0.26215922832489014,0.23142147064208984,0.08001647144556046,-21.284925340699907,-156.39773991684368,1.9144905238142538,-1.605522871017456,42.18767166137695,40.43431091308594,58.457769739476106,29.9864119215175,28.283818475664678,107.29240223754965,0.745670321267098,2.501693600743982,27.457871020091716,108.45250303788714,2.0432256904433386,27.29818290484411,108.83812185804773,2.2732545088583205
2021-04-22 02:56:00.388742,-0.0017278495943173766,0.004613059107214212,0.019495747983455658,0.2600212097167969,0.22958888113498688,0.07879474759101868,-21.284925340699907,-156.39773991684368,1.9144905238142538,-1.5692501068115234,41.97036361694336,40.296531677246094,58.20467707368085,29.9864119215175,28.25482261509068,107.33577393877923,0.813037811072256,2.5087615658744755,27.49243006974469,108.46019383089258,2.0643343900732627,27.36124774899813,108.77986717461668,2.2531906147279965
2021-04-22 02:56:00.888759,-0.0009873425588011742,0.004127473570406437,0.019983140751719475,0.26582443714141846,0.2280617207288742,0.08184906840324402,-21.333059391328277,-156.35580255533978,1.915196015914179,-1.3644428253173828,41.98247528076172,39.71165084838867,57.804888617033576,30.001440063217686,28.27253671070311,107.22208544004437,0.8777677272798784,2.4926258842905553,27.54827881904059,108.31613148091867,2.047040991425025,27.381579514609967,108.72494562350062,2.2920018840261243
2021-04-22 02:56:01.388521,-0.0014810138382017612,0.004370266571640968,0.017789868637919426,0.2594103515148163,0.23081061244010925,0.08062733709812164,-21.333059391328277,-156.35580255533978,1.915196015914179,-1.3526582717895508,41.99161148071289,40.132293701171875,58.10099927595479,30.001440063217686,28.164501901053725,107.52460817876258,0.9342353023867539,2.720487184861116,27.356828616605135,108.69007750778769,2.294801194368772,27.223925088187734,109.01139692710179,2.487034734124665
2021-04-22 02:56:01.945931,-0.0017278495943173766,0.004370266571640968,0.01730247773230076,0.2636864185333252,0.22714541852474213,0.07971104234457016,-21.38117978157831,-156.31383787307922,1.915901215669909,-1.430808186531067,42.142269134521484,40.206546783447266,58.2630626050727,30.016480199718174,27.55945130097544,108.80519351605909,1.6699642833168984,3.3955623784142546,26.771689725504725,109.92867767225616,2.931455933510354,26.61907597868996,110.28644298098142,3.143562548986634
2021-04-22 02:56:02.488654,-0.0017278495943173766,0.0031563034281134605,0.018520960584282875,0.26215922832489014,0.23111605644226074,0.07910017669200897,-21.38117978157831,-156.31383787307922,1.915901215669909,-1.2637035846710205,41.84830856323242,39.80134201049805,57.766986265427235,30.016480199718174,27.300860338998756,109.64669331237218,2.174643866159673,3.9084049978105466,26.427449898883378,110.7770418086851,3.4522525216385374,26.263878821092618,111.14800987307599,3.669861494821497
2021-04-22 02:56:03.048555,-0.0009873425588011742,0.0038846812676638365,0.01730247773230076,0.2639918327331543,0.22989431023597717,0.08093277364969254,-21.429288218997296,-156.27183220968365,1.9166061141227726,-1.4369817972183228,41.70389175415039,40.11253356933594,57.88173160400898,30.03153205971754,26.98164461794904,110.45667178566565,2.7666507259139395,4.343624224836936,26.181469173661828,111.48380246324133,3.9318777966669414,25.982818244293885,111.92686317432172,4.186028708796293
2021-04-22 02:56:03.602073,-0.0017278495943173766,0.004370266571640968,0.01876465603709221,0.26093751192092896,0.23019975423812866,0.07971104234457016,-21.429288218997296,-156.27183220968365,1.9166061141227726,-1.2339544296264648,41.65089797973633,39.967811584472656,57.73859981766708,30.03153205971754,26.503352083582435,111.26902033460111,3.34194475309942,4.9843719548386485,25.70239629018255,112.39868581199703,4.512009305332083,25.526691381331265,112.77819161285045,4.732574042878366
2021-04-22 02:56:04.101623,-0.0007405069191008806,0.0026707183569669724,0.017546173185110092,0.2649081349372864,0.23019975423812866,0.07910017669200897,-21.47738299603794,-156.22981288590972,1.917310758783321,-0.9932187795639038,41.943172454833984,39.8088493347168,57.83563507453,30.046596579150936,27.119496618420115,110.18448191705147,2.4929599232296513,4.3283519218527875,26.27009941587921,111.30656588446867,3.8656027636030155,26.12258611282715,111.63528239865387,4.057764586372623
2021-04-22 02:56:04.601607,-0.0012341781985014677,0.0048558516427874565,0.019739443436264992,0.26521357893943787,0.23050519824028015,0.08062733709812164,-21.47738299603794,-156.22981288590972,1.917310758783321,-1.0720350742340088,42.285621643066406,40.65672302246094,58.67019843043024,30.046596579150936,27.011676959729588,109.9595091461696,2.4529932847447333,4.09094223026596,26.236624658756973,111.14524364646215,3.665092742120359,26.099527394189188,111.45418676300015,3.846178132490322
2021-04-22 02:56:05.101576,-0.0012341781985014677,0.004127473570406437,0.018520960584282875,0.2639918327331543,0.22928345203399658,0.08032190799713135,-21.525464112700245,-156.1877525810008,1.9180150732141725,-0.9004406929016113,41.90657043457031,40.57786560058594,58.339820155090045,30.061672044372187,26.98624133526046,109.71950995911368,2.4533962659057638,4.172624035663319,26.158328492753828,110.86175664496076,3.7401620706275,25.987783791820487,111.2418020307586,3.9648765749813886
2021-04-22 02:56:05.601545,-0.0009873425588011742,0.004127473570406437,0.020226839929819107,0.26185381412506104,0.23172691464424133,0.07848931103944778,-21.525464112700245,-156.1877525810008,1.9180150732141725,-0.9061071872711182,42.350250244140625,40.129127502441406,58.34990659875435,30.061672044372187,27.096495956390097,109.49058933889154,2.4969312513451905,4.16385492654267,26.259924141563182,110.65318315827608,3.7123794224048265,26.094145205123215,111.02719065684764,3.934465157701907
2021-04-22 02:56:06.101592,-0.0014810138382017612,0.004613059107214212,0.017546173185110092,0.2636864185333252,0.23081061244010925,0.08123820275068283,-21.573534984078794,-156.14566495533518,1.9187191542297064,-1.0437779426574707,42.11274719238281,40.29297637939453,58.29319766485254,30.076760449096003,27.25913471335915,109.16153131524783,2.434866603017754,4.154292661704652,26.419344171885864,110.35678026905421,3.715516186781155,26.28241595450003,110.67010836703938,3.8995372778337543
2021-04-22 02:56:06.601616,-0.0009873425588011742,0.0048558516427874565,0.018520960584282875,0.2633809745311737,0.23111605644226074,0.08001647144556046,-21.573534984078794,-156.14566495533518,1.9187191542297064,-1.1951404809951782,42.1524543762207,40.1614990234375,58.23404308922962,30.076760449096003,27.230331805629206,109.12564550134859,2.4963129057818927,4.122779449534682,26.4906735449356,110.21342142856481,3.699362789394075,26.358693799603444,110.51739899757624,3.8777622078729306
2021-04-22 02:56:07.101613,-0.0017278495943173766,0.0033990959636867046,0.01876465603709221,0.26063206791877747,0.23050519824028015,0.07971104234457016,-21.621590487531712,-156.10353634853453,1.919422876101914,-1.1843010187149048,42.01025390625,40.042598724365234,58.04889072817033,30.09185901951877,27.395122072186812,108.80645710105554,2.571712431246721,4.307298290623046,26.529048962787314,110.02540681128187,3.8792763754345576,26.396031028701316,110.33618724870662,4.061027709248597
2021-04-22 02:56:07.601508,-0.0012341781985014677,0.005827021785080433,0.016815081238746643,0.2646026909351349,0.22989431023597717,0.07818388193845749,-21.621590487531712,-156.10353634853453,1.919422876101914,-1.2019891738891602,41.7894287109375,40.191749572753906,57.99291218484926,30.09185901951877,27.34903537076215,108.840061631772,2.485516511138218,4.191140251616401,26.51564642408846,109.98249956291585,3.7588819115952123,26.388514405519718,110.2768807161434,3.93133949238298
2021-04-22 02:56:08.101597,-0.0009873425588011742,0.004370266571640968,0.01657138578593731,0.2627701163291931,0.2277562916278839,0.08032190799713135,-21.669634038153582,-156.06139408135556,1.920126373891634,-1.3292560577392578,41.918663024902344,40.47110366821289,58.28251421812194,30.106970574482048,27.42985699921091,108.69966026319322,2.440219977223163,4.186374914009848,26.581347721262105,109.89901416069078,3.753772930096043,26.44234995655776,110.22308614624038,3.946025679758977
2021-04-22 02:56:08.601624,-0.0004936712794005871,0.0031563034281134605,0.017058778554201126,0.2584940493106842,0.228672593832016,0.08001647144556046,-21.669634038153582,-156.06139408135556,1.920126373891634,-1.148517370223999,41.5960693359375,40.59571838378906,58.13402125645305,30.106970574482048,27.71329789693539,108.32139755676874,2.3107110528232586,4.058287522730953,26.861752599900516,109.47625277182368,3.565567707846576,26.731396732043528,109.7831673221782,3.7470524508395733
2021-04-22 02:56:09.101630,-0.0012341781985014677,0.0031563034281134605,0.01730247773230076,0.26185381412506104,0.22470197081565857,0.07971104234457016,-21.717665635944403,-156.01921083304157,1.9208295712098682,-1.1346676349639893,42.05164337158203,40.61901092529297,58.47676657820286,30.122093396580087,27.926135129209452,108.12610878801975,2.4070675196523905,4.090348857581816,27.093444569378395,109.27972090864573,3.674590973934908,26.966339871566333,109.57753081683663,3.8525818617240324
2021-04-22 02:56:09.601715,-0.0012341781985014677,0.0033990959636867046,0.017058778554201126,0.26185381412506104,0.228672593832016,0.08154363930225372,-21.717665635944403,-156.01921083304157,1.9208295712098682,-1.3506971597671509,42.14420700073242,39.854042053222656,58.01985207252796,30.122093396580087,27.91523243974682,108.16308743218619,2.3490269199631495,4.062532485300116,27.18205261348097,109.19631063850153,3.5918398170456185,27.027220762733243,109.56969658985862,3.81109870779996
2021-04-22 02:56:10.101630,-0.0014810138382017612,0.004370266571640968,0.01827726513147354,0.26093751192092896,0.22958888113498688,0.08062733709812164,-21.765681865809594,-155.9770002639709,1.9215324480547058,-1.5678563117980957,42.339637756347656,39.37636947631836,57.841175402032775,30.137226975665676,27.971943500425436,108.07877557707155,2.3123699350179256,4.086658847882716,27.17814574527572,109.20352331826507,3.6312235415735583,27.01183746917508,109.59815798813007,3.8666622966980135
2021-04-22 02:56:10.601680,-0.0014810138382017612,0.004613059107214212,0.016327690333127975,0.26032665371894836,0.23019975423812866,0.08032190799713135,-21.765681865809594,-155.9770002639709,1.9215324480547058,-1.4074993133544922,42.56698226928711,39.66633224487305,58.200918786489545,30.137226975665676,27.984789378706935,107.91550673515157,2.204831594743837,3.9918775934309183,27.16123419689077,109.04509708046662,3.501563712681679,26.999602892824296,109.42893322125383,3.7328477918000624
2021-04-22 02:56:11.101597,-0.0007405069191008806,0.0038846812676638365,0.019008353352546692,0.2630755305290222,0.22928345203399658,0.07910017669200897,-21.813687850391027,-155.93474871376517,1.9222350539148687,-1.3484249114990234,42.037147521972656,40.010189056396484,58.049593020577085,30.152372298583117,28.136259068835724,107.68254264294077,2.0476087508997827,3.808723936402911,27.357267456259308,108.80970827110048,3.34053538625287,27.230970428316603,109.11279791551979,3.520400520638928
2021-04-22 02:56:11.601735,-0.0004936712794005871,0.0036418887320905924,0.01657138578593731,0.26215922832489014,0.2283671498298645,0.0778784453868866,-21.813687850391027,-155.93474871376517,1.9222350539148687,-1.1733583211898804,42.51618576049805,39.6689453125,58.160364885179305,30.152372298583117,28.40261595589871,107.54543342554194,1.8867765789661999,3.6122821463446435,27.548504215283202,108.73384535998915,3.1825072204169893,27.40727810136214,109.07502696940962,3.3857503847847084
2021-04-22 02:56:12.101756,-0.0007405069191008806,0.004613059107214212,0.017058778554201126,0.26032665371894836,0.22989431023597717,0.07910017669200897,-21.86167846704683,-155.89248350318115,1.922937377811937,-1.1806046962738037,42.58296585083008,40.512603759765625,58.78753159895047,30.16752905161576,28.26179282313868,107.6733833592638,1.740881070252083,3.492165799270565,27.52118175105586,108.85211008546791,3.014359062108676,27.391271553042216,109.16426339091583,3.2021124246558643
2021-04-22 02:56:12.601562,-0.0012341781985014677,0.004127473570406437,0.01730247773230076,0.26063206791877747,0.228672593832016,0.0775730162858963,-21.86167846704683,-155.89248350318115,1.922937377811937,-1.230089545249939,42.36542510986328,40.12685775756836,58.3652900149129,30.16752905161576,28.259175153139275,107.42425903947675,1.671554009846219,3.3115068688369043,27.529864629038237,108.52387851471377,2.8570250142471982,27.364073739767225,108.92655914742105,3.0968897319538216
2021-04-22 02:56:13.101736,-0.0014810138382017612,0.004613059107214212,0.01876465603709221,0.2630755305290222,0.22928345203399658,0.0778784453868866,-21.909657130871583,-155.8501773114621,1.9236394018035017,-1.0632522106170654,42.023555755615234,39.65655517578125,57.790588438070664,30.182696769581202,28.227486490485,107.40842666098065,1.7995104535921203,3.510191949150698,27.408306044832226,108.63326399427153,3.033558296978759,27.27878858269586,108.94879141316945,3.222599363627906
2021-04-22 02:56:13.601702,-0.0017278495943173766,0.0038846812676638365,0.01730247773230076,0.26185381412506104,0.23111605644226074,0.07940560579299927,-21.909657130871583,-155.8501773114621,1.9236394018035017,-1.0268831253051758,42.006919860839844,39.67987823486328,57.793845190311,30.182696769581202,28.252867473440766,107.36047190281799,1.7719091255475699,3.485874341271337,27.526179741981014,108.44269488623901,3.0727151311602077,27.400072251787776,108.7472461911407,3.25618084245592
2021-04-22 02:56:14.101735,-0.0009873425588011742,0.004370266571640968,0.01827726513147354,0.2600212097167969,0.2289780229330063,0.07879474759101868,-21.957622134317997,-155.80784379898634,1.9243411350636515,-0.835014283657074,42.2415657043457,39.58245849609375,57.8948887433377,30.19787557257796,28.225775528097913,107.25517087638391,1.686918306940751,3.3758726505844003,27.452844000862587,108.40186401538067,2.9195615859576,27.31229578321665,108.74217819077656,3.124253604203008
2021-04-22 02:56:14.601718,-0.0009873425588011742,0.004370266571640968,0.019252052530646324,0.26215922832489014,0.2280617207288742,0.0778784453868866,-21.957622134317997,-155.80784379898634,1.9243411350636515,-0.5741581320762634,42.204627990722656,39.55778503417969,57.84789225379166,30.19787557257796,28.129152257004325,107.2716657832295,1.7782837197556016,3.520404576063748,27.370425815695338,108.46237949142699,3.072228480181844,27.242445146122222,108.77281158920407,3.261095590450567
2021-04-22 02:56:15.101601,-0.0014810138382017612,0.004370266571640968,0.01584029383957386,0.2636864185333252,0.23172691464424133,0.08032190799713135,-22.005573477386072,-155.76546930537558,1.9250425395111697,-0.9132348895072937,42.35404968261719,39.73615646362305,58.08323039382839,30.2130645578949,28.152494428492844,107.40740213260516,1.7371636330745976,3.4845578223088167,27.350497031244533,108.55923157385776,3.08174677567708,27.224418569355265,108.86406291651544,3.2642812333681435
2021-04-22 02:56:15.601596,-0.0007405069191008806,0.004127473570406437,0.01827726513147354,0.2649081349372864,0.22958888113498688,0.07971104234457016,-22.005573477386072,-155.76546930537558,1.9250425395111697,-0.8921402096748352,42.620880126953125,39.697811126708984,58.251622682992156,30.2130645578949,28.25920759653783,107.20223691031632,1.674303694595678,3.4318042159239885,27.470187558712542,108.35485182332347,2.9754867479948413,27.341957587234724,108.67011969503292,3.162822188342189
2021-04-22 02:56:16.101655,-0.0009873425588011742,0.004370266571640968,0.016815081238746643,0.26521357893943787,0.228672593832016,0.08154363930225372,-22.053512867623102,-155.72306749100815,1.9257436827060095,-0.827852189540863,42.291603088378906,39.6663818359375,57.988678886374885,30.22826511082772,28.20931647974547,107.26876295283223,1.7475164923090445,3.4360056360371924,27.520479949118638,108.3505624645247,3.01514752207099,27.361024060302814,108.73849671881392,3.248994202788597
2021-04-22 02:56:16.601670,-0.0019746851176023483,0.0033990959636867046,0.01730247773230076,0.2630755305290222,0.23203235864639282,0.08032190799713135,-22.053512867623102,-155.72306749100815,1.9257436827060095,-0.6780399084091187,42.203155517578125,39.4651985168457,57.78466896792194,30.22826511082772,28.099965151133567,107.37411179059052,1.925710364782565,3.5656541524282592,27.35154546528213,108.47661360565729,3.1365048291398954,27.225105003366853,108.78250362763632,3.3213423412417225
2021-04-22 02:56:17.101710,-0.0014810138382017612,0.0033990959636867046,0.017546173185110092,0.2642972767353058,0.22958888113498688,0.08032190799713135,-22.10143859748179,-155.68063835588404,1.9264445355839408,-0.7464174628257751,42.15502166748047,40.02164077758789,58.132045563052785,30.24347652515197,28.096824971662656,107.36561503526302,1.986824549598312,3.7214213122054542,27.32128601971168,108.53303779839077,3.2592898591887454,27.187093293088438,108.85968476525746,3.4547237694576127
2021-04-22 02:56:17.601827,-0.0014810138382017612,0.0029135108925402164,0.01876465603709221,0.2600212097167969,0.23050519824028015,0.0778784453868866,-22.10143859748179,-155.68063835588404,1.9264445355839408,-1.0459587574005127,42.06493377685547,39.961483001708984,58.02993026938164,30.24347652515197,28.191849978490456,107.36384601626798,2.058586358999874,3.7514502388914153,27.396585440216484,108.50687134368044,3.3149917594174916,27.235351994669163,108.89744888117846,3.5495011819280022
2021-04-22 02:56:18.101762,-0.0012341781985014677,0.0031563034281134605,0.01876465603709221,0.2624646723270416,0.2280617207288742,0.07940560579299927,-22.149350666962135,-155.63818190000322,1.9271450982797051,-0.6324289441108704,41.98147964477539,39.85227966308594,57.888244004105466,30.258698726785294,28.27811697525501,107.23174332753076,1.9464508745275435,3.71023986564732,27.535702733231304,108.3450983131887,3.2773823899698744,27.378693759685635,108.7303004918099,3.5073892237134654
2021-04-22 02:56:18.601538,-0.0007405069191008806,0.0036418887320905924,0.016815081238746643,0.2624646723270416,0.23081061244010925,0.07848931103944778,-22.149350666962135,-155.63818190000322,1.9271450982797051,-0.8439547419548035,42.47202682495117,39.998329162597656,58.347679114300256,30.258698726785294,28.384068577207543,107.25674181989301,1.9800741882642237,3.7664092069473893,27.518668241441294,108.48559530441585,3.30953145006289,27.389167854777853,108.80100661009787,3.4983972796711433
2021-04-22 02:56:19.101621,-0.0014810138382017612,0.004370266571640968,0.01827726513147354,0.2636864185333252,0.22958888113498688,0.07910017669200897,-22.197249076064143,-155.5956844629874,1.9278453327384653,-1.1521755456924438,42.18510437011719,39.683067321777344,57.92802751061428,30.27393081064569,28.42797644828697,107.38807952744318,2.0526325684777387,3.781413425006615,27.638188014180052,108.5213445145317,3.3762032744289114,27.468203388758653,108.92983080803349,3.6230098122097947
2021-04-22 02:56:19.601604,-0.0014810138382017612,0.004127473570406437,0.01803356595337391,0.26215922832489014,0.22989431023597717,0.08032190799713135,-22.197249076064143,-155.5956844629874,1.9278453327384653,-1.0026177167892456,42.12386703491211,39.87152862548828,58.01003543520816,30.27393081064569,28.44348268525019,107.36056752546638,2.0370236652335554,3.8679694241504246,27.595630813009,108.57382085792491,3.4073053945882106,27.46635069994629,108.88961465420046,3.593632314815924
2021-04-22 02:56:20.102127,-0.0014810138382017612,0.005827021785080433,0.017789868637919426,0.2624646723270416,0.22928345203399658,0.07940560579299927,-22.245133824787807,-155.5531597052149,1.928545277298171,-1.2194691896438599,42.08792495727539,39.69908905029297,57.86966566118061,30.28917353268601,28.4627045451219,107.46956368424144,1.9976839100483974,3.6211016281104227,27.704253018927,108.59544523683716,3.214520743943662,27.54059144112974,108.99240900120914,3.4496950426811908
2021-04-22 02:56:20.601527,-0.0017278495943173766,0.0038846812676638365,0.018520960584282875,0.26612985134124756,0.22958888113498688,0.07971104234457016,-22.245133824787807,-155.5531597052149,1.928545277298171,-1.102117896080017,42.05958557128906,39.89340591430664,57.980231439078295,30.28917353268601,28.616163527846453,107.35029492095468,1.9058287513257157,3.69875575633159,27.755566522614014,108.53553081743782,3.2491410518557524,27.62595514537656,108.85217838735961,3.439010919271998
2021-04-22 02:56:21.101726,-0.0012341781985014677,0.004370266571640968,0.017789868637919426,0.26124295592308044,0.23111605644226074,0.07971104234457016,-22.293006620680426,-155.5105939663074,1.9292449231161728,-0.699113130569458,42.217437744140625,39.392696380615234,57.74586857070435,30.30442662359353,28.498223236353258,107.36788265806746,1.8898446145640049,3.662585208921318,27.68665845162505,108.54344017649669,3.1834066709533153,27.556772159273503,108.85726687829127,3.3711988802014075
2021-04-22 02:56:21.601736,-0.0014810138382017612,0.004613059107214212,0.018520960584282875,0.2642972767353058,0.23142147064208984,0.07971104234457016,-22.293006620680426,-155.5105939663074,1.9292449231161728,-0.5971704721450806,42.020591735839844,38.64278030395508,57.090727898868764,30.30442662359353,28.367875906232733,107.61592780796565,2.058888167983824,3.7408288678452224,27.646817958196365,108.70655192406576,3.3031985840418185,27.483024899257583,109.09939708436822,3.537975664590429
2021-04-22 02:56:22.101642,-0.0009873425588011742,0.005098644178360701,0.018520960584282875,0.2642972767353058,0.22989431023597717,0.07910017669200897,-22.340864048647415,-155.4680009066432,1.9299442501211268,-1.0521987676620483,42.04767990112305,39.87977981567383,57.96129178564434,30.319689568185623,28.245021293631716,107.71848309835339,2.020283511908089,3.7779027077732286,27.391196420961347,108.90544020250736,3.305879219847637,27.265464591172456,109.20609829958217,3.487071545366793
2021-04-22 02:56:22.601562,-0.0017278495943173766,0.004127473570406437,0.018520960584282875,0.26154837012290955,0.23050519824028015,0.08154363930225372,-22.340864048647415,-155.4680009066432,1.9299442501211268,-0.8112534284591675,41.71845245361328,40.14826583862305,57.904841396020814,30.319689568185623,28.204137488807312,107.60816871306851,2.0517008879862666,3.8326731409539145,27.446688292873112,108.72612724622702,3.3506703197641112,27.28501088502974,109.1148674628383,3.5821524743684248
2021-04-22 02:56:23.101559,-0.0012341781985014677,0.004127473570406437,0.01803356595337391,0.2639918327331543,0.23111605644226074,0.08001647144556046,-22.388709523783355,-155.4253805262223,1.9306433168471122,-0.7855428457260132,42.07379150390625,40.10129165649414,58.128603988018256,30.33496356794612,28.060758157750403,107.67173045348464,2.0340384456794367,3.79622639776908,27.273930610648687,108.86101665214561,3.3123461283311695,27.14512178063871,109.16897622144315,3.4971072276916573
2021-04-22 02:56:23.601759,-0.0009873425588011742,0.005584229249507189,0.01730247773230076,0.26093751192092896,0.22989431023597717,0.08032190799713135,-22.388709523783355,-155.4253805262223,1.9306433168471122,-1.143500566482544,42.079566955566406,40.3115119934082,58.28392186450939,30.33496356794612,28.044360581100495,107.65783784871284,1.917883181437142,3.609612823039638,27.235659353181816,108.80356110084746,3.14340630840937,27.10516688154143,109.11609006669974,3.330602156765556
2021-04-22 02:56:24.101583,-0.0014810138382017612,0.004127473570406437,0.015596598386764526,0.2627701163291931,0.23050519824028015,0.0778784453868866,-22.436541338540952,-155.38273282504474,1.9313420942322648,-0.9549541473388672,41.93282699584961,39.61465072631836,57.69397255741339,30.350247913103185,27.871503861133103,107.78467446159998,2.119432032003875,3.7507885643155703,27.22296203151476,108.83327925392618,3.2926152059228837,27.092575427806512,109.14664150285721,3.479733147433849
2021-04-22 02:56:24.601698,-0.0009873425588011742,0.0031563034281134605,0.018520960584282875,0.2627701163291931,0.2283671498298645,0.07818388193845749,-22.436541338540952,-155.38273282504474,1.9313420942322648,-0.4566775858402252,42.449398040771484,39.4905891418457,57.979880814048975,30.350247913103185,27.909493373296716,107.90028224349162,2.374711632893571,3.971328542426112,27.122413109195712,109.04712564665012,3.5364467694334034,26.990189184600727,109.36668287715833,3.7248457983005694
2021-04-22 02:56:25.101596,-0.0009873425588011742,0.004127473570406437,0.02047053538262844,0.26063206791877747,0.2289780229330063,0.08032190799713135,-22.484357785372918,-155.34004414273218,1.9320405150635513,-0.2831901013851166,42.31981658935547,39.72065353393555,58.0411697845,30.365541055454802,28.0585946953308,107.49644047862544,2.074499419105534,3.815884962860846,27.274480440876875,108.64739565566428,3.3506780037269275,27.114474721832863,109.03224949463782,3.577760449288695
2021-04-22 02:56:25.601598,-0.0009873425588011742,0.004127473570406437,0.01730247773230076,0.26185381412506104,0.2280617207288742,0.07818388193845749,-22.484357785372918,-155.34004414273218,1.9320405150635513,-0.5950328707695007,42.397438049316406,39.802921295166016,58.15642149317734,30.365541055454802,27.957038320109174,107.58087527714514,2.1351549140298327,3.843626203061676,27.163734046126997,108.7119204527534,3.405030301264362,27.031839678159464,109.0306853813179,3.5951913054939793
2021-04-22 02:56:26.101654,-0.0009873425588011742,0.0038846812676638365,0.01827726513147354,0.2646026909351349,0.2280617207288742,0.08154363930225372,-22.53216227937384,-155.2973281396629,1.9327386760406118,-0.7785094976425171,42.106754302978516,39.651954650878906,57.84342955431219,30.38084503559703,28.059909506746028,107.50247836585173,2.116116188605245,3.781719075971973,27.357803626109153,108.57471561270619,3.3654474340334337,27.196416501305507,108.96551171625764,3.6001167256592046
2021-04-22 02:56:26.601674,-0.0012341781985014677,0.004613059107214212,0.01730247773230076,0.2627701163291931,0.22745086252689362,0.08062733709812164,-22.53216227937384,-155.2973281396629,1.9327386760406118,-1.1692076921463013,41.84489059448242,39.52210235595703,57.57046543260113,30.38084503559703,28.008683087970933,107.80134695336397,2.2698180699321577,3.8292213341021193,27.361036013133862,108.63829101350066,3.332031800736204,27.19277601047789,109.04582108051865,3.574860820542613
2021-04-22 02:56:27.101722,-0.0014810138382017612,0.005098644178360701,0.015596598386764526,0.26124295592308044,0.2277562916278839,0.08093277364969254,-22.579953112996417,-155.25457115545865,1.9334365099642707,-1.162569522857666,42.15506362915039,39.63130569458008,57.870902434042364,30.39615830492407,28.00197584220598,107.649648451898,2.2175611463660365,3.865836270695265,27.32301918021357,108.71548581150014,3.428568840691518,27.16141690445107,109.1063707075108,3.662065260770751
2021-04-22 02:56:27.601535,-0.0017278495943173766,0.004127473570406437,0.015596598386764526,0.26521357893943787,0.2326432168483734,0.07879474759101868,-22.579953112996417,-155.25457115545865,1.9334365099642707,-0.8941793441772461,42.2816047668457,39.49577331542969,57.86579100075545,30.39615830492407,27.813898045673216,107.70045139894455,2.4566173404296596,4.061436239938328,27.084708757429947,108.79658064751571,3.6178308212716326,26.926857963069075,109.17796475039088,3.847822500533003
2021-04-22 02:56:28.101528,-0.0007405069191008806,0.005098644178360701,0.019983140751719475,0.26215922832489014,0.228672593832016,0.08032190799713135,-22.627728578693365,-155.21178685049767,1.9341340259254793,-0.7578802704811096,42.16191482543945,39.203880310058594,57.57730173963865,30.411480985488975,27.849382585958725,107.84736876799153,2.370182790587029,4.138611828030772,27.058817217833724,108.96799790511552,3.7124694955245063,26.89783648928569,109.35344597054684,3.944363382469725
2021-04-22 02:56:28.601640,-0.0009873425588011742,0.004613059107214212,0.016815081238746643,0.2630755305290222,0.23050519824028015,0.08001647144556046,-22.627728578693365,-155.21178685049767,1.9341340259254793,-1.0118004083633423,42.484642028808594,39.293800354003906,57.878936536901676,30.411480985488975,27.80387303551893,107.9478681714391,2.2948293688990984,4.051687852445427,26.988413335416524,109.09897361263968,3.6035160254317553,26.855832533437408,109.41872208844465,3.7932514234987162
2021-04-22 02:56:29.101542,-0.0014810138382017612,0.004370266571640968,0.016327690333127975,0.26521357893943787,0.23294863104820251,0.08154363930225372,-22.675492091559263,-155.16897522478004,1.9348312824606746,-1.3796477317810059,41.92431640625,39.44425964355469,57.579521991966274,30.426814288323612,27.82664830130634,107.94407058626057,2.2457551000427913,3.9125210405591253,27.0549274251014,109.06006885512728,3.479964520091983,26.89252943230059,109.4491642415754,3.7115837053665204
2021-04-22 02:56:29.601632,-0.0009873425588011742,0.0033990959636867046,0.017546173185110092,0.2630755305290222,0.23081061244010925,0.08093277364969254,-22.675492091559263,-155.16897522478004,1.9348312824606746,-0.7811218500137329,42.15396499633789,39.0338020324707,57.45611035709921,30.426814288323612,27.95864682965871,107.97560556965851,2.03798031860418,3.800505511284093,27.123724505516353,109.10663025469927,3.3998346617400976,26.9554371821037,109.50310224545099,3.6384554312441324
2021-04-22 02:56:30.101668,-0.0009873425588011742,0.0033990959636867046,0.019252052530646324,0.2624646723270416,0.2289780229330063,0.07971104234457016,-22.72324023649953,-155.12612261792736,1.9355281831926858,-1.0079991817474365,42.15042495727539,39.527198791503906,57.793371858132446,30.44215601800086,28.28475250403368,107.66207939618742,1.878316962792316,3.6408144078287257,27.380858929652533,108.91558303342484,3.200622376199744,27.254959760228978,109.21666460222818,3.379052743973276
2021-04-22 02:56:30.601774,-0.0009873425588011742,0.004127473570406437,0.018520960584282875,0.2624646723270416,0.23417037725448608,0.08001647144556046,-22.72324023649953,-155.12612261792736,1.9355281831926858,-1.0171823501586914,42.23227310180664,39.46975326538086,57.81402056689275,30.44215601800086,28.35034281063331,107.59680327828961,1.7096258044449872,3.5729626682835844,27.539196374991768,108.81016589377487,3.059642789419038,27.409639639267674,109.12870542609674,3.2468465351814513
2021-04-22 02:56:31.101693,-0.0014810138382017612,0.004127473570406437,0.017546173185110092,0.2642972767353058,0.22958888113498688,0.07879474759101868,-22.77097642860875,-155.08324269031803,1.9362248247905243,-0.9432986378669739,42.60356903076172,39.361968994140625,58.01136534830712,30.457508226803412,28.29733883512672,107.53502421724684,1.648633389095537,3.4797086014415193,27.470129502104598,108.75830426740696,3.0050537831381803,27.339162332316896,109.06747961037675,3.1912210476940444
2021-04-22 02:56:31.601684,-0.0014810138382017612,0.004613059107214212,0.016815081238746643,0.26124295592308044,0.23050519824028015,0.07940560579299927,-22.77097642860875,-155.08324269031803,1.9362248247905243,-1.2700930833816528,42.31468963623047,39.6043815612793,57.97114052959768,30.457508226803412,28.262940294919243,107.66169007540474,1.6336392028766549,3.3243358850888924,27.45920290697987,108.79319970387655,2.8811332341398157,27.295310810298123,109.18487007164177,3.115098162507429
2021-04-22 02:56:32.101665,-0.0017278495943173766,0.004370266571640968,0.016815081238746643,0.2624646723270416,0.23081061244010925,0.07696215063333511,-22.818697252792337,-155.04032178157368,1.9369211108911233,-1.0990626811981201,42.39176559448242,39.5150146484375,57.9629719015595,30.472868715530215,28.286682032474207,107.48421444001112,1.5894834172746977,3.340954802556591,27.547365281239102,108.61090878511808,2.888305573098564,27.38587911869249,109.00077598294241,3.1213068044629706
2021-04-22 02:56:32.601570,-0.0009873425588011742,0.0033990959636867046,0.019008353352546692,0.2584940493106842,0.22989431023597717,0.07971104234457016,-22.818697252792337,-155.04032178157368,1.9369211108911233,-0.6584528684616089,42.543540954589844,39.751914978027344,58.22886897025533,30.472868715530215,28.257797162474223,107.55308323741235,1.6734088330927004,3.4635631014606667,27.455709265219408,108.76019622980705,3.035243005826225,27.328968274980653,109.06728153489082,3.218599647538629
2021-04-22 02:56:33.101685,-0.0009873425588011742,0.0031563034281134605,0.019495747983455658,0.26032665371894836,0.2283671498298645,0.08184906840324402,-22.866404416597582,-154.99737355207264,1.9376171089520673,-1.0583761930465698,42.67697525024414,39.72372817993164,58.313111366047465,30.48823889591776,28.254914822644476,107.57007674806735,1.6288579637359402,3.3676409919740657,27.470966200277925,108.71222781126605,2.904253851367132,27.314686349426154,109.08762183823912,3.1301036612271242
2021-04-22 02:56:33.601593,-0.0019746851176023483,0.004613059107214212,0.019008353352546692,0.26185381412506104,0.23019975423812866,0.08123820275068283,-22.866404416597582,-154.99737355207264,1.9376171089520673,-0.9129659533500671,42.327423095703125,39.56507110595703,57.946864491308546,30.48823889591776,28.066136931721786,107.63925290398123,1.7722638684975875,3.4464069469260643,27.401264119797943,108.70124486708067,3.0131802141466144,27.26358116650883,109.03426440044298,3.2113020172972933
2021-04-22 02:56:34.101580,-0.0012341781985014677,0.005098644178360701,0.017789868637919426,0.26215922832489014,0.23111605644226074,0.07848931103944778,-22.91409792002449,-154.95439800181492,1.9383128191139065,-0.8484025597572327,42.353187561035156,39.62955856323242,58.008742404919396,30.503618697180116,27.91599742093386,107.79543200954275,1.8481475903415465,3.5169312114273845,27.20405948298675,108.92123159986843,3.158756945125562,27.06653191650125,109.25115022734757,3.3580008202908274
2021-04-22 02:56:34.601566,-0.0012341781985014677,0.004370266571640968,0.01730247773230076,0.2639918327331543,0.2277562916278839,0.07910017669200897,-22.91409792002449,-154.95439800181492,1.9383128191139065,-1.0100655555725098,42.34728240966797,39.04751205444336,57.61094303648073,30.503618697180116,28.027945928977662,107.67823962376367,1.903315241711151,3.5941514091928446,27.227657786569146,108.81914076234426,3.1676639386900822,27.06477655788456,109.20735505438944,3.4006280309008767
2021-04-22 02:56:35.101505,-0.0012341781985014677,0.0033990959636867046,0.019739443436264992,0.2627701163291931,0.22745086252689362,0.08001647144556046,-22.961776055525764,-154.91138147042219,1.9390081742338776,-0.5652545094490051,42.71530532836914,39.617431640625,58.261974835700926,30.519006559010183,28.144363088285942,107.65180679167572,1.8307049947486265,3.610797860860635,27.36898123068588,108.84023921669043,3.178947838085766,27.242721768783607,109.14118418171036,3.3586095609006046
2021-04-22 02:56:35.601603,-0.0014810138382017612,0.0038846812676638365,0.019495747983455658,0.2600212097167969,0.23019975423812866,0.07940560579299927,-22.961776055525764,-154.91138147042219,1.9390081742338776,-0.4950781464576721,42.65290451049805,39.31100845336914,58.00750598994603,30.519006559010183,28.12749764367789,107.64238796081027,1.8557310213109648,3.562931681713774,27.364454522813453,108.7718690230986,3.092516063007486,27.202423652680533,109.15931833395675,3.325520496023066
2021-04-22 02:56:36.101742,-0.0014810138382017612,0.0029135108925402164,0.016327690333127975,0.2624646723270416,0.23019975423812866,0.07848931103944778,-23.009440530648696,-154.86833761827276,1.9397032417505156,-0.7710060477256775,42.751197814941406,39.3336067199707,58.09812374370798,30.53440389798533,28.099504113364592,107.65006509343736,1.9402708339891512,3.645922962441072,27.32297307643667,108.77018196637361,3.20439797670688,27.18870521773256,109.09439055570661,3.397924129763198
2021-04-22 02:56:36.601595,-0.0012341781985014677,0.004370266571640968,0.017546173185110092,0.26215922832489014,0.23081061244010925,0.08215450495481491,-23.009440530648696,-154.86833761827276,1.9397032417505156,-0.918736457824707,42.49504089355469,39.03324890136719,57.708466424086375,30.53440389798533,28.140398163472753,107.60734226017894,1.9785258697567465,3.6988663200187797,27.30153140508471,108.7891562318879,3.2779273109995946,27.160962696871263,109.13000999222822,3.4803184092683543
2021-04-22 02:56:37.101744,-0.0019746851176023483,0.005098644178360701,0.017058778554201126,0.2630755305290222,0.23081061244010925,0.07635128498077393,-23.057093052940584,-154.82525278498832,1.9403980129336353,-0.6021373867988586,42.52842330932617,39.435462951660156,58.001595640306135,30.54981044710703,28.10210129279649,107.71447377731059,2.066339904368308,3.7308516690151263,27.32945151086443,108.85508804794604,3.3266440621415336,27.201026878995265,109.16564308912818,3.5101985658964563
2021-04-22 02:56:37.601511,-0.0009873425588011742,0.0036418887320905924,0.018520960584282875,0.2624646723270416,0.2283671498298645,0.08123820275068283,-23.057093052940584,-154.82525278498832,1.9403980129336353,-0.32036224007606506,42.368228912353516,39.57710647583008,57.97858923890479,30.54981044710703,28.35455703735121,107.21149864683085,1.762695093635517,3.479283422165686,27.545150592400724,108.38112756106051,3.047520697746146,27.4178563568392,108.69186701735025,3.2345223125978095
2021-04-22 02:56:38.101724,-0.0014810138382017612,0.0048558516427874565,0.016815081238746643,0.2591049075126648,0.23111605644226074,0.07971104234457016,-23.104728499759545,-154.7821406309472,1.9410924384127837,-0.43528851866722107,42.4693489074707,38.91211700439453,57.60197845979473,30.565225036192462,28.25538610569721,107.29066053931129,1.8972579311344075,3.530369395175973,27.464344331877598,108.4319919798096,3.1250698118088245,27.299415753989297,108.8292221215592,3.36133480637944
2021-04-22 02:56:38.601609,-0.0009873425588011742,0.0048558516427874565,0.017546173185110092,0.26032665371894836,0.22683998942375183,0.07971104234457016,-23.104728499759545,-154.7821406309472,1.9410924384127837,-0.42658162117004395,42.30630111694336,39.291500091552734,57.739302606816196,30.565225036192462,28.21494797071615,107.20350049531277,1.718608890585729,3.6334625629608532,27.36587178706623,108.39269790151451,3.156535212654604,27.243777033010375,108.68985894173426,3.336300242080639
2021-04-22 02:56:39.101649,-0.0019746851176023483,0.0048558516427874565,0.016327690333127975,0.26215922832489014,0.23081061244010925,0.08001647144556046,-23.15235199374746,-154.73898749577106,1.941786567870536,-0.4807727038860321,42.6231803894043,40.09379959106445,58.51905172291278,30.58064869288779,27.852206869180527,107.56423010613781,1.9644494902075849,3.484051321093178,27.3390240209862,108.28622208254319,3.000219076422869,27.037133074766224,109.01784462567826,3.4344039566768245
2021-04-22 02:56:39.601545,-0.0009873425588011742,0.0048558516427874565,0.01657138578593731,0.26154837012290955,0.23019975423812866,0.07879474759101868,-23.15235199374746,-154.73898749577106,1.941786567870536,-0.36554375290870667,42.491580963134766,39.4438362121582,57.978308789697294,30.58064869288779,27.95267724432412,107.06499791932325,1.6700666294327429,3.3463632451621836,27.23888149492277,108.1724243007816,2.906631824415354,27.076143700210753,108.56324089490056,3.141354050007193
2021-04-22 02:56:40.101640,-0.0014810138382017612,0.0031563034281134605,0.017789868637919426,0.26124295592308044,0.23233777284622192,0.07635128498077393,-23.19996011980974,-154.69580703983823,1.942480381122415,-0.3312804102897644,42.5045051574707,39.5417594909668,58.05422851983444,30.596080894694193,27.836167877462042,107.18155509750952,1.816113362803952,3.504336342597881,27.150070252692384,108.25157936307288,3.0541884564799595,27.0239508096681,108.55378108290009,3.235934027321887
2021-04-22 02:56:40.601699,-0.0009873425588011742,0.004370266571640968,0.017789868637919426,0.2633809745311737,0.23142147064208984,0.07971104234457016,-23.19996011980974,-154.69580703983823,1.942480381122415,-0.3388065695762634,42.39225387573242,38.25826644897461,57.104403772711564,30.596080894694193,27.66135601584474,107.30365155911267,1.918711341874006,3.5114416603253984,26.947281936234706,108.4146569596961,3.028477490009916,26.787295000210914,108.80034408174838,3.2608153392511854
2021-04-22 02:56:41.101510,-0.0019746851176023483,0.0048558516427874565,0.01730247773230076,0.2594103515148163,0.2283671498298645,0.08062733709812164,-23.24755458549368,-154.65259926314874,1.9431739075106418,-0.18019787967205048,42.37254333496094,39.11989974975586,57.67002216385849,30.61152222075638,27.5746979907502,107.36499348804854,1.9739379036252018,3.7051471058474297,26.82878839941874,108.47731028495264,3.2686960968929104,26.699552682585637,108.78679298643507,3.4559273768554157
2021-04-22 02:56:41.601665,-0.0009873425588011742,0.0033990959636867046,0.01827726513147354,0.2587994933128357,0.2280617207288742,0.07726757973432541,-23.24755458549368,-154.65259926314874,1.9431739075106418,-0.23747095465660095,42.64657974243164,38.996639251708984,57.7886236997371,30.61152222075638,27.73373553047936,107.27021778312545,1.937458290154987,3.6815411183022193,26.94836964386003,108.41975228081694,3.2271922389579166,26.78740257569034,108.80802121437547,3.4583879525039127
2021-04-22 02:56:42.101659,-0.0009873425588011742,0.0038846812676638365,0.017546173185110092,0.2600212097167969,0.22714541852474213,0.08001647144556046,-23.29513368325199,-154.60935050532422,1.9438670799436746,0.023388201370835304,42.29838180541992,39.37112808227539,57.786152120001695,30.626971102710833,27.930614025757688,106.93855745740797,1.7566959463884244,3.5131139894549936,27.135180440301756,108.09512704994457,3.0513456036813533,27.00751054433588,108.4061397138011,3.2415691468305585
2021-04-22 02:56:42.601660,-0.0009873425588011742,0.005098644178360701,0.01803356595337391,0.26124295592308044,0.23019975423812866,0.07971104234457016,-23.29513368325199,-154.60935050532422,1.9438670799436746,-0.12728773057460785,42.17460632324219,39.08488082885742,57.500795908342006,30.626971102710833,27.9771446894784,106.82711609091004,1.7831620756485775,3.436505947393896,27.275557903218445,107.92634624536439,3.0261915110720774,27.143243478616956,108.24847845718969,3.218413524883746
2021-04-22 02:56:43.101553,-0.0012341781985014677,0.004127473570406437,0.016083991155028343,0.26185381412506104,0.23111605644226074,0.07910017669200897,-23.34269912063196,-154.56606076636467,1.944559927785752,-0.026239097118377686,42.282562255859375,38.98586654663086,57.51272511194851,30.642428119368578,27.84316369871943,106.90388741718098,1.829394025314807,3.5052381410117346,27.10115756049863,108.0118260628271,3.055646701867757,26.937246680796665,108.41146043116454,3.296705635462075
2021-04-22 02:56:43.601630,-0.0012341781985014677,0.004127473570406437,0.017058778554201126,0.2639918327331543,0.2283671498298645,0.07910017669200897,-23.34269912063196,-154.56606076636467,1.944559927785752,-0.08712924271821976,42.526912689208984,38.97276306152344,57.68381189753488,30.642428119368578,27.773601637117434,106.93870772156971,2.0257269592331775,3.642102325374096,26.982295193467486,108.05883142469511,3.1931853674106576,26.856426759895196,108.37161993773586,3.377725552840178
2021-04-22 02:56:44.101665,-0.0012341781985014677,0.004127473570406437,0.017058778554201126,0.2600212097167969,0.2289780229330063,0.08123820275068283,-23.390249190086294,-154.52274370664844,1.94525246002493,-0.21369855105876923,42.34490966796875,38.87329864501953,57.48278341733319,30.65789339708918,27.848079727374547,106.94516225033537,2.0013649551242114,3.755185071706943,27.02514438522556,108.10626025829168,3.3207861077111898,26.865749968112265,108.49584741836004,3.555998185932565
2021-04-22 02:56:44.601575,-0.0012341781985014677,0.004127473570406437,0.016327690333127975,0.2587994933128357,0.23019975423812866,0.07818388193845749,-23.390249190086294,-154.52274370664844,1.94525246002493,-0.5367001295089722,42.358463287353516,38.86333084106445,57.488137412488165,30.65789339708918,27.841729358993728,106.88925715197881,1.9510569833490707,3.695207046170945,27.03379311226209,108.04657123513495,3.2263023933751107,26.90665597105147,108.35690771026364,3.4138399646332087
2021-04-22 02:56:45.101686,-0.0004936712794005871,0.0038846812676638365,0.017058778554201126,0.26124295592308044,0.2283671498298645,0.0778784453868866,-23.437785599162293,-154.47939932617555,1.9459447060050414,0.006818179972469807,42.57453536987305,38.44354248046875,57.36285441725991,30.67336751846628,27.925071327246222,106.8892366614113,1.9794991717134733,3.6622129636115526,27.181053698314855,108.00634825111274,3.243489924091213,27.059870774513197,108.30540125373258,3.423531362735222
2021-04-22 02:56:45.601510,-0.0012341781985014677,0.0033990959636867046,0.019008353352546692,0.2639918327331543,0.2289780229330063,0.08123820275068283,-23.437785599162293,-154.47939932617555,1.9459447060050414,-0.3298380970954895,42.38548278808594,38.67972183227539,57.3825655175126,30.67336751846628,27.982728369124885,106.91034877613582,2.034828826632454,3.7451621959867722,27.22340599381081,108.02668172427187,3.3184074943327326,27.097390711171368,108.33807687872192,3.50582617761059
2021-04-22 02:56:46.101700,-0.0019746851176023483,0.0036418887320905924,0.016327690333127975,0.257272332906723,0.2277562916278839,0.07971104234457016,-23.48530834785995,-154.43601396456762,1.9466366278638545,-0.48431000113487244,42.598960876464844,38.54532241821289,57.45126547131722,30.688849564355934,27.998294370243343,106.872632471539,2.09854040432351,3.842858660553696,27.226307116660774,107.98749009881433,3.3762621848105026,27.058069312119606,108.40063458133007,3.625307743978681
2021-04-22 02:56:46.601561,-0.0009873425588011742,0.004127473570406437,0.01876465603709221,0.2646026909351349,0.23111605644226074,0.0778784453868866,-23.48530834785995,-154.43601396456762,1.9466366278638545,-0.3072773516178131,43.03989028930664,38.504512786865234,57.750533161523606,30.688849564355934,28.03752868438319,106.77878567234303,2.0352367169919505,3.740522789993041,27.27395963895266,107.95876232316526,3.2957498358650965,27.145432554245946,108.27728136491963,3.489202137501014
2021-04-22 02:56:47.101647,-0.0017278495943173766,0.0033990959636867046,0.017058778554201126,0.2624646723270416,0.228672593832016,0.0778784453868866,-23.532815728631974,-154.39258762182467,1.947328196569142,-0.7122217416763306,42.56300354003906,39.06820297241211,57.779243796127034,30.70433881035546,28.121248020587327,106.87265296210651,2.155364163123431,3.8803038920178214,27.314387528649966,108.01374534598386,3.401417558080248,27.18559406656562,108.32596012313432,3.5892067791205786
2021-04-22 02:56:47.601664,-0.0012341781985014677,0.0036418887320905924,0.01876465603709221,0.2624646723270416,0.23203235864639282,0.08062733709812164,-23.532815728631974,-154.39258762182467,1.947328196569142,-0.5451741218566895,42.1386833190918,38.33068084716797,56.96671783504204,30.70433881035546,28.306088307453507,106.87936020787147,2.182426653275491,3.8224568855028678,27.544238762146527,108.00573353408744,3.4372094568784073,27.383471477010062,108.4026085060002,3.674563653178228
2021-04-22 02:56:48.101525,-0.002221520757302642,0.004613059107214212,0.01803356595337391,0.2642972767353058,0.22683998942375183,0.07910017669200897,-23.580307741478364,-154.34913395832507,1.9480194502811286,-0.17805936932563782,42.59278106689453,38.6010856628418,57.48234962578917,30.719836036856027,28.10168465125712,106.88789794433399,2.2905508957143197,4.021340041302592,27.381869797649692,107.99956587326692,3.501457844749544,27.2557059583958,108.30763472559117,3.6855299487775066
2021-04-22 02:56:48.601580,-0.0009873425588011742,0.004370266571640968,0.016083991155028343,0.26582443714141846,0.23019975423812866,0.08093277364969254,-23.580307741478364,-154.34913395832507,1.9480194502811286,-0.15809644758701324,42.32025909423828,38.867950439453125,57.46082922873618,30.719836036856027,27.92392214791837,106.97454572414476,2.3437228511858113,4.078943722328363,27.250313524046078,108.05718534910514,3.600230704440979,27.12370230740155,108.36874442809528,3.783979014813601
2021-04-22 02:56:49.101616,-0.0009873425588011742,0.004370266571640968,0.01584029383957386,0.26612985134124756,0.22714541852474213,0.08093277364969254,-23.627786093946415,-154.30565297406875,1.948710418345268,-0.15960219502449036,42.47676086425781,38.98672103881836,57.656440262460215,30.73534182985676,27.672555818536267,106.98289221531053,2.3890437176497845,4.058160737344484,27.10267727758896,107.98753791013853,3.554424894545935,26.937233020418326,108.38893446728184,3.7943784047117686
2021-04-22 02:56:49.605762,-0.0014810138382017612,0.0038846812676638365,0.016815081238746643,0.2600212097167969,0.2283671498298645,0.08001647144556046,-23.627786093946415,-154.30565297406875,1.948710418345268,-0.41480886936187744,42.573455810546875,38.865665435791016,57.6472996402913,30.73534182985676,27.53480627090274,107.2820066896329,2.610341846758198,4.344942024459925,26.785440603851253,108.37712507020689,3.912007068824082,26.624365960202137,108.76162373934358,4.142923384944343
2021-04-22 02:56:50.105592,-0.0007405069191008806,0.0038846812676638365,0.019008353352546692,0.2597157955169678,0.22958888113498688,0.08001647144556046,-23.675250786036127,-154.26213100867744,1.9494010629300358,-0.2798970639705658,42.718994140625,38.44398498535156,57.47113000722283,30.75085526840759,27.554480630806964,107.2314837803423,2.4680386973823905,4.169721632152887,26.857265165615814,108.32145902847128,3.73809038887487,26.696733522005715,108.71205705653679,3.9696914314594247
2021-04-22 02:56:50.605805,0.0007273377268575132,0.005584229249507189,0.020714230835437775,0.2630755305290222,0.228672593832016,0.07910017669200897,-23.675250786036127,-154.26213100867744,1.9494010629300358,0.1177605390548706,43.092323303222656,38.706119537353516,57.92344848896623,30.75085526840759,27.745843748330504,107.14362022685926,2.3190306501191573,4.026122881268893,26.911331235538345,108.35082201171316,3.6023651385566082,26.773976131329388,108.68237305440393,3.801020763679606
2021-04-22 02:56:51.107199,-0.0012341781985014677,0.0048558516427874565,0.017789868637919426,0.2646026909351349,0.23111605644226074,0.08093277364969254,-23.722698402652913,-154.2185680621511,1.9500913258056498,-0.23053793609142303,42.66822052001953,38.38770294189453,57.39552183960114,30.76637496964127,27.68182950788185,107.29307159608831,2.2672215308304953,3.967002898247378,26.87970233703931,108.42984047022104,3.5187903035420973,26.745502780226897,108.74839366292127,3.708710757046884
2021-04-22 02:56:51.606777,-0.0009873425588011742,0.004613059107214212,0.01827726513147354,0.26093751192092896,0.2283671498298645,0.0824599340558052,-23.722698402652913,-154.2185680621511,1.9500913258056498,-0.22719736397266388,42.28705596923828,38.333980560302734,57.07662206880638,30.76637496964127,27.679717271881024,107.26552544316564,2.2695858435003773,3.938401907984773,26.89533151740759,108.40841416679471,3.5000644861588612,26.73530701534336,108.79612985503049,3.732788454531648
2021-04-22 02:56:52.106698,-0.0007405069191008806,0.0048558516427874565,0.018520960584282875,0.26093751192092896,0.228672593832016,0.0778784453868866,-23.770132358891356,-154.17497779486808,1.9507813035035706,-0.010225133039057255,42.39533615112305,38.7330207824707,57.424833746867506,30.78190303048987,27.925081572529976,106.9080743231422,1.9889863044706209,3.7287223575413746,27.070081907322365,108.09029810620137,3.2862212950861056,26.910772867573694,108.47582130371357,3.5180319391008146
2021-04-22 02:56:52.606713,-0.0017278495943173766,0.004370266571640968,0.017789868637919426,0.2624646723270416,0.2280617207288742,0.08184906840324402,-23.770132358891356,-154.17497779486808,1.9507813035035706,-0.5126721858978271,42.37382125854492,38.502620697021484,57.256050871152596,30.78190303048987,27.924569308342225,106.90019911502918,2.020940704172291,3.7054753818144133,27.1908601424157,108.00893689280818,3.2394835912561777,27.022955309596572,108.41931514871006,3.4842995557808254
2021-04-22 02:56:53.106604,-0.0012341781985014677,0.004613059107214212,0.017789868637919426,0.2649081349372864,0.22989431023597717,0.07726757973432541,-23.817552654751463,-154.13134654645003,1.9514709582157235,0.11967252194881439,42.41193389892578,38.38606262207031,57.20381335352446,30.797438528702287,27.822913895377635,106.79548548486372,1.952952574287161,3.6771608326101255,27.081046068487527,107.90922979130433,3.191360853128618,26.921462113624766,108.29802464942897,3.424388338032647
2021-04-22 02:56:53.606625,-0.0012341781985014677,0.0038846812676638365,0.018520960584282875,0.2642972767353058,0.2280617207288742,0.07910017669200897,-23.817552654751463,-154.13134654645003,1.9514709582157235,-0.27769994735717773,42.658077239990234,38.5991325378418,57.529833162869615,30.797438528702287,27.686984593157916,106.92445994696106,2.2272478487129956,3.880967274140959,27.01106395025158,107.95218485099454,3.448973177063285,26.841306428620083,108.36336906921848,3.6972347585807928
2021-04-22 02:56:54.106567,-0.0014810138382017612,0.0038846812676638365,0.01730247773230076,0.26215922832489014,0.22928345203399658,0.08184906840324402,-23.864955875138644,-154.08768797727532,1.952160269661982,-0.7062489986419678,42.49991989135742,38.65238952636719,57.452146996591004,30.812980934399466,27.75369334323414,107.08988712865877,2.192000657501145,3.9152987931172047,26.972396541812845,108.21293415274894,3.481700668801636,26.845742636486005,108.52674036397602,3.670231178810324
2021-04-22 02:56:54.606679,-0.0012341781985014677,0.004613059107214212,0.018520960584282875,0.2639918327331543,0.23019975423812866,0.08001647144556046,-23.864955875138644,-154.08768797727532,1.952160269661982,-0.4097575843334198,42.53144454956055,38.2213020324707,57.18356062547707,30.812980934399466,27.7389196440594,107.07882222220336,2.3037551454838354,4.042112781002716,26.924545944035028,108.19453362312494,3.578802053137122,26.792195660940397,108.51764938219073,3.7720791177321464
2021-04-22 02:56:55.106607,-0.0014810138382017612,0.004370266571640968,0.01803356595337391,0.2627701163291931,0.23081061244010925,0.07848931103944778,-23.912345435147486,-154.04398842696557,1.9528492584488821,-0.3576011657714844,42.60047149658203,38.491050720214844,57.41505931261424,30.828530639383036,27.973075604280364,106.86473677285846,2.21489715914632,3.912787844823579,27.141795478512915,108.03158580009594,3.500991044008456,26.985805910700872,108.41775103539013,3.7320034096639194
2021-04-22 02:56:55.606608,-0.0017278495943173766,0.004370266571640968,0.016815081238746643,0.2630755305290222,0.23019975423812866,0.07910017669200897,-23.912345435147486,-154.04398842696557,1.9528492584488821,-0.07140062004327774,42.64249801635742,38.79717254638672,57.650744424661966,30.828530639383036,27.805922092269935,107.02655078448524,2.303960904932582,3.9629654026742545,27.111626532948968,108.10261976746408,3.5158987856456547,26.9404500395174,108.50828519283864,3.761355720735226
