row,time_REC,pitch_rec,roll_rec,yaw_rec,beta,lat_rec_r,long_rec_r,lat_r,long_r,Theta_rad,B_x,B_y,B_z,B_t,Bth_x,Bth_y,Bth_z,Bth_t,Bwmm_x,Bwmm_y,Bwmm_z,Bwmm_t,Bwmm1_x,Bwmm1_y,Bwmm1_z,Bwmm2_x,Bwmm2_y,Bwmm2_z,Bwmm3_x,Bwmm3_y,Bwmm3_z,Bwmm3_t,pitch_api,roll_api,yaw_api,Biss_x,Biss_API_y,Biss_API_z,Biss_API_t,B_p_x,B_p_y,B_p_z,B_p_t,pitch_iss,roll_iss,yaw_iss,Bwmm_p_x,Bwmm_p_y,Bwmm_p_z,Bwmm_p_t,Biss_VEC_x,Biss_VEC_y,Biss_VEC_z,Biss_VEC_t,alpha,vt_Bwmm_paralel,vs_Bwmm_paralel,I_indus,mom_mag_indus,Forta_wmm_indus,mom_F_wmm_indus,mom_mag_sursa,Forta_wmm_sursa,mom_F_wmm_sursa
1,2021-04-22 01:57:39.240691,0.4319044053554535,1.5304105281829834,6.103351209555762,0,-0.253278892391642,0.15050493216953023,-0.25316257332143927,0.150634670379586,0.0312591490257094,2.465940475463867,26.40353775024414,19.874963760375977,33.13973223539015,25.267507579128345,0,-11.360555019746359,27.703955486861304,14.667661344614071,-2.0089310127304274,-19.98616529682299,24.87213091808033,21.798478119524344,-11.923665860253982,-1.1293540329585223,16.5896713000286,-17.483782825367946,6.141908553414306,15.738659346783228,8.847209303920149,-17.106852016214706,24.87213091808033,1.0,4.94,1.57,-13.272718871319361,17.55632844632399,36.98181577659068,43.03538582243655,-25.333495309655373,-16.518422458811013,-13.54981872577172,33.13973223539015,0,0,0,14.667661344614071,-2.0089310127304274,-19.98616529682299,24.87213091808033,-40.001156654269444,-14.509491446080586,6.436346571051269,43.03538582243656,0,0.0,8.168928690821531e-05,-0.0,-0.0,-0.0,-0.0,1600000.0,0.0001307028590531445,32.14087129269573
2,2021-04-22 01:57:49.240552,0.4662844240665436,1.8054397106170657,0.10985704511404037,0.6594744789267883,-0.24463081526658562,0.15720995954595857,-0.24451449619638288,0.15733920626698533,0.031129937572018533,2.441890239715576,25.83500099182129,20.113826751708984,32.83254682153045,25.30888802211978,0,-10.985932629373124,27.590406460458738,14.96690421950172,-1.9419986013288795,-19.872500117319607,24.95387427627561,22.032423984090318,-10.022544191697559,6.067680175068627,12.569483615816367,-15.789576580111651,14.676279993536616,10.942756017643863,16.826372649141437,-14.826500450433791,24.953874276275606,1.0,4.94,2.2294744789267886,-8.500865777928286,9.008628342679852,34.940327202142775,37.070831776258885,-25.437509883759756,-16.019910669937296,-13.201200090478252,32.83254682153045,0,0,0.6594744789267883,10.6386931845979,-10.705035628492409,-19.872500117319607,24.95387427627561,-36.07620306835766,-5.314875041444887,6.6713000268413545,37.07083177625889,0,-0.4028590211053068,6.583408898919174e-05,0.0064457443376849085,103.13190940295853,6.789595301259632e-09,0.002327995940554966,1600000.0,0.00010533454238270679,36.11678990965228
3,2021-04-22 01:57:59.240679,0.46580514311790466,1.8712103366851809,0.11460172384977341,0.6564279916163012,-0.23596964666102882,0.16388298056107248,-0.23585308929311508,0.16401192940996046,0.031000439916781423,2.6717312335968018,25.832977294921875,19.6134033203125,32.544837586163666,25.348966962411918,0,-10.609875737072267,27.479803296558828,15.271636788773082,-1.8742964688517014,-19.746581439377934,25.033245015445807,22.23262900437926,-9.36786041888439,6.679577436430828,12.870621170365377,-15.614217249823861,14.737933585397515,10.782967644316964,16.770606518211885,-15.137295722693171,25.033245015445807,1.0,4.94,2.2264279916163012,-8.111236410720162,9.06237077670999,34.75069904300567,36.81752034266722,-24.949512209278687,-15.989476388212777,-13.454550860567995,32.544837586163666,0,0,0.6564279916163012,10.953976735496326,-10.804918840026637,-19.746581439377934,25.033245015445807,-35.90348894477501,-5.18455754818614,6.292030578809939,36.81752034266722,0,0.03153233640413333,6.708029991031594e-05,-0.0005045173824661333,-8.072278119458133,-5.414908372127328e-10,-0.00018170689862701095,1600000.0,0.00010732847985650551,36.015983778162166
4,2021-04-22 01:58:09.422684,0.4640457630157471,1.889564037322998,0.12274095416069031,0.6534712080473997,-0.22729590785121453,0.17052523138424805,-0.22702125484563093,0.1707744312155709,0.030868307942583235,2.1774368286132812,25.70686149597168,19.48623275756836,32.331056682357335,25.388421375398597,0,-10.22556637368961,27.370315080348057,15.58717937478244,-1.8046359811530972,-19.6054557591725,25.11156640695649,22.411181627761636,-9.008389022516923,6.868670371874137,13.179693206054893,-15.42224358156588,14.800028963353625,10.608115112665105,16.708132419681345,-15.456292317817528,25.11156640695649,1.0,4.94,2.2234712080473997,-8.430678284051824,8.998729076290335,34.94252507538589,37.054466936681564,-24.797313088422964,-16.17742733074206,-12.987737861193919,32.331056682357335,0,0,0.6534712080473997,11.278760395503147,-10.909007096291818,-19.6054557591725,25.11156640695649,-36.07607348392611,-5.268420234450241,6.617717897978581,37.054466936681564,0,0.032482500101480835,6.826820325045446e-05,-0.0005197200016236934,-8.315520025979094,-5.676856112667651e-10,-0.0001865729307686541,1600000.0,0.00010922912520072714,35.898739741739526
5,2021-04-22 01:58:19.422501,0.47235560417175293,1.8801472187042236,0.10868865251541138,0.6506310918305083,-0.21861010521977875,0.17713799286568205,-0.2183352883845188,0.17738619482533993,0.030738276702494963,1.9853969812393188,26.317564010620117,19.021469116210938,32.53263383074244,25.425826493534952,0,-9.846794193266257,27.26594962153136,15.90187691017633,-1.7355693317778726,-19.45386468208203,25.186002883358956,22.76061695325795,-8.68149318796512,6.39693154371276,13.486120392593493,-15.220402005018265,14.859295434261865,10.424732690364756,16.640093218657825,-15.772348818403168,25.186002883358956,1.0,4.94,2.2206310918305086,-8.439335709125437,9.677470791962293,34.793817934614104,37.087539613833606,-24.48289369866875,-16.870320539392033,-13.204259350793636,32.53263383074244,0,0,0.6506310918305083,11.601935968951995,-11.012582437564086,-19.45386468208203,25.186002883358956,-36.084829667620745,-5.857738101827946,6.249605331288395,37.08753961383361,0,0.03232168454722721,6.935671347463312e-05,-0.0005171469527556354,-8.274351244090166,-5.738818084248358e-10,-0.00018497484445776513,1600000.0,0.000110970741559413,35.76833305738732
6,2021-04-22 01:58:29.422697,0.46934327483177185,1.8742585182189941,0.08785507082939148,0.6479334499415551,-0.2099127749365712,0.18372250117475053,-0.20963748150588918,0.1839699882412753,0.030607990507208856,1.9657853841781616,25.766448974609375,18.867069244384766,31.99594516200774,25.461888079973455,0,-9.46673064017038,27.16480689441092,16.220959191852963,-1.6659150386114348,-19.28911278733953,25.25796235135242,23.005232453048418,-8.584607426542423,5.918484371500604,13.79416306223201,-15.005038105881022,14.917592265374083,10.229127315594054,16.566204440704194,-16.09007417423849,25.25796235135242,1.0,4.94,2.217933449941555,-8.263341931415892,9.200244533905181,34.95714341862326,37.08003769347253,-24.207788619712396,-16.458666448542633,-12.916492391092351,31.995945162007743,0,0,0.6479334499415551,11.928055623033071,-11.118285797435682,-19.28911278733953,25.25796235135242,-36.13584424274546,-5.340380651106951,6.372620396247179,37.08003769347253,0,0.03261616114628598,7.035920202014267e-05,-0.0005218585783405757,-8.349737253449211,-5.874808502305443e-10,-0.0001859033656326875,1600000.0,0.00011257472323222828,35.62332274460824
7,2021-04-22 01:58:39.422581,0.4715980589389801,1.8718018531799316,0.07376035302877426,0.6453488703143692,-0.20120440849062105,0.19027997758722265,-0.2009289214430488,0.19052658593093794,0.030477468554010262,1.7470453977584839,25.634748458862305,18.50676918029785,31.665328068153578,25.4965907920695,0,-9.085449869376069,27.066982494308238,16.5440095689063,-1.5957395729697943,-19.110952522506615,25.327438554230213,23.275594887714977,-8.318481095993763,5.525278146562203,14.103720023309107,-14.776022299573292,14.974424537354665,10.021335152247307,16.485982284900132,-16.409277058621395,25.32743855423021,1.0,4.94,2.215348870314369,-8.274289754488823,9.148766173962173,34.91604623891925,37.03098808302879,-23.82712573739216,-16.537604733156023,-12.707033896554872,31.665328068153578,0,0,0.6453488703143692,12.257042496102695,-11.225664641772338,-19.110952522506615,25.327438554230216,-36.08416823349485,-5.3119400913836845,6.403918625951743,37.03098808302879,0,0.032902943680020336,7.127433002906969e-05,-0.0005264470988803254,-8.423153582085206,-6.003546282950815e-10,-0.0001866957229773676,1600000.0,0.0001140389280465115,35.46333969252402
8,2021-04-22 01:58:49.422715,0.4849366545677185,1.8722532987594604,0.06862957775592804,0.6428801552567718,-0.1924855122645642,0.19681164337886747,-0.19220965287681843,0.19705758151027045,0.03034671454908833,0.9349541664123535,26.2276554107666,18.359159469604492,32.02846833786428,25.529924033325695,0,-8.702981260027762,26.972558350289564,16.87063747685248,-1.5251012412590712,-18.919138364683135,25.394450951605442,23.617066053670307,-7.7423814893331455,5.21227963790315,14.414362161239351,-14.533172156239987,15.029677631114266,9.801187339637202,16.39933202594858,-16.72951807343915,25.39445095160544,1.0,4.94,2.212880155256772,-8.866233173224849,9.82832338481802,35.088677543043644,37.50228423654016,-23.81787185276663,-17.49046122683368,-12.353765844769336,32.028468337864275,0,0,0.6428801552567718,12.5884899534858,-11.33464879749066,-18.919138364683135,25.394450951605442,-36.40636180625243,-6.155812429343021,6.565372519913799,37.50228423654016,0,0.03314905810775244,7.209901283999898e-05,-0.000530384929724039,-8.486158875584623,-6.11843677733047e-10,-0.0001871640615649322,1600000.0,0.00011535842054399836,35.28834457312244
9,2021-04-22 01:58:59.426949,0.48079895973205566,1.8691890239715576,0.0595490150153637,0.6405209624355213,-0.18375657774742965,0.20331870493184714,-0.18347677155384473,0.203566668593794,0.03021568772339252,1.1027666330337524,25.840822219848633,18.446149826049805,31.768295998523946,25.56188802099195,0,-8.319224159198454,26.881584957154647,17.200553200873472,-1.4540348795674247,-18.713373220481312,25.459057035485515,23.801401403909537,-7.579140413051741,4.920722197535983,14.725849915201255,-14.27625156303544,15.083155197769454,9.56850812012091,16.306032273992347,-17.050529287116124,25.459057035485515,1.0,4.94,2.2105209624355213,-8.465741487087158,9.534789945856286,35.496679113165925,37.71730672119711,-23.81499147359688,-17.06616285405601,-12.280753120276435,31.768295998523946,0,0,0.6405209624355213,12.922187040313192,-11.445100696028808,-18.713373220481312,25.459057035485515,-36.737178513910074,-5.621062158027202,6.432620100204877,37.71730672119712,0,0.033374073208798906,7.283120430301437e-05,-0.0005339851713407824,-8.543762741452518,-6.222525297392105e-10,-0.00018741920373806513,1600000.0,0.000116529926884823,35.09820380732195
10,2021-04-22 01:59:09.094560,0.47531893849372864,1.8922300338745117,0.05244821310043335,0.6383137559536657,-0.17501812621546034,0.20980238352193073,-0.17502868578278094,0.2098345239257076,0.03008887161820081,0.6152474284172058,25.9923152923584,17.918231964111328,31.575972200001114,25.591451487149794,0,-7.9473524223701535,26.797066998917884,17.52196110819466,-1.3850393464874184,-18.501170863310737,25.51922370257024,23.960155769100243,-7.314787340599564,4.861645818452761,15.027507920565656,-14.014650842444038,15.132559130680502,9.33197710979917,16.20905380773275,-17.361208375629598,25.519223702570237,1.0,4.94,2.208313755953666,-8.716729681381965,9.783261484625648,35.27944033974093,37.6341931267323,-23.335262701100703,-17.554382256794938,-12.014624364839065,31.575972200001114,0,0,0.6383137559536657,13.24665089982984,-11.552648830741884,-18.501170863310737,25.51922370257024,-36.58191360093054,-6.001733426053054,6.486546498471672,37.6341931267323,0,0.03245064454124229,7.345048363305295e-05,-0.0005192103126598766,-8.307365002558026,-6.101799771541852e-10,-0.0001812035082017174,1600000.0,0.00011752077381288473,34.89982840930586
11,2021-04-22 01:59:19.094689,0.4861967861652374,1.8803993463516235,0.03813992440700531,0.6362120583402465,-0.16627060447686448,0.21626382595685262,-0.16628113425697116,0.21629610040309197,0.029957498499114096,0.6205969452857971,26.160112380981445,17.96819305419922,31.7425988537021,25.620651026359514,0,-7.561675167840153,26.713230623764456,17.856680544384627,-1.3134003638641008,-18.267690768025574,25.579182679988225,24.26751024571446,-6.856485139111048,4.286157321833001,15.338567668593747,-13.729979872906545,15.18257491803552,9.074392491145424,16.103038292292588,-17.681689547376735,25.57918267998822,1.0,4.94,2.2062120583402467,-8.453795545859627,10.057074088688857,35.64988260157595,37.99375643263931,-23.421898410378557,-17.679491087347873,-12.101357433500729,31.7425988537021,0,0,0.6362120583402465,13.582698602269362,-11.666034427341312,-18.267690768025574,25.579182679988225,-37.00459701264792,-6.013456660006561,6.166333334524845,37.99375643263931,0,0.03360921956741745,7.399052739387457e-05,-0.0005377475130786791,-8.603960209258865,-6.366115535589748e-10,-0.00018649522505140816,1600000.0,0.00011838484383019932,34.68081590627861
12,2021-04-22 01:59:29.094641,0.4779998660087586,1.8687250614166262,0.035672541707754135,0.6341873331621006,-0.15751450402067108,0.22270425351238196,-0.15752515294963332,0.22273654285222824,0.029825939114595888,0.8220226764678955,25.74567413330078,16.715476989746094,30.707045264132326,25.648435802133314,0,-7.175021325215811,26.633122049685724,18.193249919236923,-1.2415492306554623,-18.0198593795893,25.636909314036433,24.39370767242329,-6.7648661183210015,4.0539772532264156,15.649431508661843,-13.431137749056077,15.229936027367634,8.804389408262175,15.989707424873682,-18.001752769959595,25.636909314036423,1.0,4.94,2.2041873331621007,-7.982366731794279,9.7559667084271,34.71722975970569,36.93484949536126,-22.107806383935255,-17.469827456394317,-12.20543544441223,30.707045264132326,0,0,0.6341873331621006,13.919989345403328,-11.78005448798151,-18.0198593795893,25.636909314036433,-36.027795729338585,-5.689772968412807,5.81442393517707,36.93484949536127,0,0.033733556380802374,7.44337894786895e-05,-0.0005397369020928379,-8.635790433485408,-6.427946071081336e-10,-0.0001859218055543203,1600000.0,0.00011909406316590321,34.4467470786981
13,2021-04-22 01:59:39.102737,0.49276015162467957,1.877266764640808,0.019550757482647896,0.6322712868364915,-0.14875031633590918,0.22912479810264616,-0.14875393548239563,0.2291623299921354,0.029694093989975946,-0.08887602388858795,25.782262802124023,17.414377212524414,31.112594039158804,25.67481739322566,0,-6.787118291291671,26.556754750448498,18.53149942920237,-1.1694885016049201,-17.75733693378984,25.69255124408728,24.703829367457107,-6.107605797321823,3.539089634091728,15.95952792916693,-13.117752295373096,15.274987149763017,8.521454672737645,15.869349054690465,-18.32091046511945,25.69255124408728,1.0,4.94,2.2022712868364915,-8.610330696626233,9.912913747433558,35.73528767764387,38.07117596126086,-22.797246919264584,-17.858727247399564,-11.372990013649433,31.112594039158804,0,0,0.6322712868364915,14.257982838246402,-11.89512924831777,-17.75733693378984,25.692551244087277,-37.055229757510986,-5.963597999081793,6.384346920140407,38.071175961260856,0,0.033803864859663156,7.477673133138296e-05,-0.0005408618377546105,-8.653789404073768,-6.471020852667928e-10,-0.00018496420293934385,1600000.0,0.00011964277013021274,34.19805022798859
14,2021-04-22 01:59:49.102546,0.48129305243492126,1.8795484304428103,6.271922887546019,0.6304664280110504,-0.13997848823078696,0.23552663632259355,-0.13998234567498447,0.23556409374404808,0.029562189489692706,-0.11999467760324478,25.639080047607422,16.891706466674805,30.703527024864385,25.699743248756675,0,-6.398652607687058,26.484326652680352,18.870417945152905,-1.0973984591371837,-17.48046327748703,25.74613666549679,24.828733612344458,-6.165629728172252,2.895263452736792,16.26790631082436,-12.790320270798574,15.317522150500658,8.226043273440272,15.742108961389768,-18.638180455979548,25.74613666549679,1.0,4.94,2.20046642801105,-8.346037951043517,9.896971086217654,35.529886922654356,37.8150664537072,-22.255746584050396,-17.857839294142575,-11.335161732312597,30.703527024864382,0,0,0.6304664280110504,14.59568959010884,-12.010945099868453,-17.48046327748703,25.74613666549679,-36.85143617415923,-5.846894194274123,6.145301545174432,37.815066453707196,0,0.033775211655963665,7.501759096584237e-05,-0.0005404033864954186,-8.646454183926698,-6.486361632747094e-10,-0.00018338841878437728,1600000.0,0.0001200281455453478,33.93546809054498
15,2021-04-22 01:59:59.102744,0.4952966570854187,1.870848536491394,6.277517493125991,0.6287706643825889,-0.13119951119433346,0.24191094476717237,-0.1312032643832824,0.24194853623108933,0.02943012146371376,-0.7913222312927246,25.033905029296875,17.15376853942871,30.35744335404231,25.723227899796246,0,-6.0093388207434275,26.41584007082398,19.20983797186685,-1.0252786166371808,-17.18895053721096,25.79785052514639,25.07597212855741,-5.451904080886039,2.646026344998495,16.574389073097613,-12.448582233214086,15.357458088963973,7.917924701324923,15.607851582178627,-18.953377776286437,25.79785052514639,1.0,4.94,2.198770664382589,-8.709246932617647,9.426053447118248,36.10714631571515,38.32006629411935,-22.374345507573906,-17.67460153738905,-10.419764421335039,30.357443354042307,0,0,0.6287706643825889,14.932960012526944,-12.127480216903354,-17.18895053721096,25.79785052514639,-37.307305520100854,-5.547121320485697,6.769186115875922,38.32006629411935,0,0.0337315983243931,7.515577536310047e-05,-0.0005397055731902895,-8.635289171044633,-6.489918531344445e-10,-0.00018166060756096965,1600000.0,0.00012024924058096076,33.65920542327246
16,2021-04-22 02:00:09.006596,0.48116597533226013,1.9274591207504272,0.003530539572238922,0.6271929713136024,-0.12241381714114995,0.24827882556329617,-0.12250215857071554,0.24825530855793762,0.029299179256018694,-1.2494171857833862,24.894044876098633,17.061948776245117,30.205704918782406,25.74505679437729,0,-5.6230036474351435,26.351966138502476,19.54601575725298,-0.9538870411374584,-16.885789090190862,25.847369414863874,25.138551581621147,-5.194018073662388,3.026864102843397,16.87566728385361,-12.096092560894371,15.394249060976936,7.600337279171477,15.467873851620599,-19.263080164439657,25.847369414863874,1.0,4.94,2.1971929713136022,-8.849754464954863,9.426171024478034,36.325028940684774,38.557471154294916,-22.25345410008661,-17.82498934829418,-9.97186767807781,30.205704918782406,0,0,0.6271929713136024,15.266168520970696,-12.243395409744602,-16.885789090190862,25.847369414863877,-37.51962262105731,-5.581593938549579,6.9139214121130514,38.55747115429491,0,0.03332537689812689,7.51911710317188e-05,-0.0005332060303700302,-8.531296485920484,-6.414781731951486e-10,-0.00017794439410567036,1600000.0,0.00012030587365075007,33.37253968830433
17,2021-04-22 02:00:19.006515,0.49404966831207275,1.888187050819397,6.244486034159558,0.6257218915543817,-0.11362189011346199,0.2546314701995201,-0.11371043260672127,0.2546080574494102,0.02916682849022613,-1.8046129941940308,25.108074188232422,16.67582130432129,30.195281645883895,25.765646446698053,0,-5.23219075884486,26.29152633365331,19.8850230172696,-0.8818971399559106,-16.565075901002924,25.895822492610503,25.37917818076261,-4.85378451170586,1.712224679129203,17.176912940872043,-11.72601544498289,15.428799246037176,7.267001362652685,15.319752838723222,-19.572671936259184,25.895822492610503,1.0,4.94,2.1957218915543817,-9.071614356846716,9.7883213495092,36.24849324058047,38.62717546097583,-21.926018502573413,-18.373995565307727,-9.66442099999338,30.19528164588389,0,0,0.6257218915543817,15.601105360522158,-12.361124321544986,-16.565075901002924,25.895822492610503,-37.52712386309557,-6.01287124376274,6.900654901009544,38.62717546097582,0,0.033498263693806506,7.512282342858612e-05,-0.0005359722191009041,-8.575555505614467,-6.442199420503151e-10,-0.00017725009197983377,1600000.0,0.00012019651748573779,33.07076106988746
18,2021-04-22 02:00:29.008594,0.5023418664932251,1.886855959892273,6.234002929423944,0.6243514563909318,-0.10482417691947775,0.26096995101554404,-0.1049110140947424,0.2609480276261281,0.02903431975435149,-1.7287243604660034,24.71931266784668,15.812573432922363,29.39507416654695,25.78477489297441,0,-4.840609700901686,26.2352076141552,20.223207523185362,-0.8100465503210909,-16.22961929632648,25.94291503365034,25.552478448335066,-4.315752305795489,1.21653920018786,17.47506867860787,-11.34174745571489,15.460322757689244,6.921109100714491,15.164466145734337,-19.87893497585032,25.942915033650344,1.0,4.94,2.194351456390932,-8.649833461180496,9.554846522112342,35.691508408772684,37.94731193985644,-20.997155340296395,-18.178950435612542,-9.628894740924377,29.39507416654695,0,0,0.6243514563909318,15.934416042316894,-12.479129910769503,-16.22961929632648,25.94291503365034,-36.931571382613285,-5.699820524843039,6.600724555402103,37.947311939856434,0,0.033335652723313916,7.495121183254128e-05,-0.0005333704435730227,-8.533927097168364,-6.396281776233301e-10,-0.0001747155419032596,1600000.0,0.00011992193893206604,32.756884827147275
19,2021-04-22 02:00:39.008575,0.5007809996604919,1.883826732635498,6.220929198210136,0.623088895742486,-0.09602112436740548,0.2672954446063161,-0.09610811047873952,0.26727364036575574,0.028901719264826254,-1.938117265701294,24.503049850463867,15.633065223693848,29.12985545446789,25.80242726791158,0,-4.448477912550492,26.18309012806389,20.55996254462945,-0.73842571616611,-15.879600230955676,25.988825211421712,25.66468900578696,-4.025582703536049,0.7331152726946805,17.769480402116564,-10.943543253069992,15.488817358882194,6.562844909478291,15.002212690986937,-20.181221889131347,25.988825211421712,1.0,4.94,2.193088895742486,-8.500962175179584,9.50083715947693,35.8142871128252,38.01572603587374,-20.773453212341238,-18.1490634720985,-9.360748662292037,29.12985545446789,0,0,0.623088895742486,16.265425031213102,-12.597352139590589,-15.879600230955676,25.988825211421716,-37.038878243554336,-5.551711332507912,6.518851568663639,38.01572603587373,0,0.033105481552866856,7.467617290757289e-05,-0.0005296877048458696,-8.475003277533915,-6.328808101453695e-10,-0.00017178781764950375,1600000.0,0.00011948187665211663,32.431905833927395
20,2021-04-22 02:00:49.008719,0.5029263496398926,1.8757015466690063,6.213201333080427,0.6219339181433674,-0.0872131941590603,0.27360905309874994,-0.08730017282359087,0.2735874573686867,0.028769006549778094,-2.0554311275482178,24.510700225830078,16.051280975341797,29.37078214195138,25.818601837670222,0,-4.055756895244742,26.13521312033773,20.89490494225023,-0.6670774649386572,-15.515007054185293,26.033775922468898,25.78176972226285,-3.601154546552113,0.29920678698706216,18.059773923896717,-10.531446593963132,15.5142092043895,6.1922430507001485,14.833004094598937,-20.47915047827884,26.0337759224689,1.0,4.94,2.1919339181433672,-8.247674178248367,9.67769613123114,36.530431453620636,38.6801545233039,-21.182600864282488,-18.13898391283891,-9.215070638049404,29.37078214195138,0,0,0.6219339181433674,16.59375742991414,-12.715709152346601,-15.515007054185293,26.033775922468898,-37.776358294196626,-5.423274760492308,6.299936416135889,38.680154523303884,0,0.03283781671095376,7.429816292869873e-05,-0.0005254050673752602,-8.406481078004163,-6.245861007905761e-10,-0.00016863724294385678,1600000.0,0.00011887706068591797,32.09661524322737
21,2021-04-22 02:00:59.008679,0.5080180168151855,1.8908250331878662,6.199145149682658,0.6208858192870492,-0.07840081076224001,0.279911908406973,-0.07848795325644692,0.2798903722513375,0.02863619577448202,-2.6747872829437256,24.15283203125,14.936112403869629,28.523696041708927,25.833292389425534,0,-3.662510708750741,26.0916266332566,21.227566580616926,-0.5960627829995757,-15.135941504637145,26.077990701118043,25.887829305437663,-3.1363921840701514,-0.21198331968789308,18.345512067144032,-10.105627843136896,15.536411165320262,5.809455699419227,14.656894383666767,-20.77227167428065,26.077990701118043,1.0,4.94,2.1908858192870495,-8.484242982362954,9.495937647583233,35.708384078150274,37.91099977926274,-20.015643050215086,-18.39293059967569,-8.641491371383285,28.523696041708927,0,0,0.6208858192870492,16.918963658675402,-12.834077391547192,-15.135941504637145,26.077990701118043,-36.934606708890485,-5.5588532081284985,6.49445013325386,37.91099977926274,0,0.03252518877700936,7.381800870120969e-05,-0.0005204030204321498,-8.326448326914397,-6.146418350463399e-10,-0.00016523822076721674,1600000.0,0.00011810881392193551,31.751971890939572
22,2021-04-22 02:01:09.223540,0.5141568779945374,1.9139628410339358,6.197420936320917,0.6199367710112458,-0.06958444332556322,0.28620508287068486,-0.06948222850113286,0.28631878066606614,0.02850043703735612,-3.2498273849487305,24.242292404174805,15.77459716796875,29.104776839088835,25.8467614200361,0,-3.260316516053663,26.051578449090538,21.564559085486565,-0.5239250125389165,-14.73389938964953,26.122643380686416,25.992635928883725,-2.5556246694740135,-0.49412266877622485,18.632101089513267,-9.656637619919312,15.555920289787988,5.4059080114053515,14.470140847084142,-21.0661738251703,26.122643380686416,1.0,4.94,2.189936771011246,-8.655735396354082,9.772151557090663,36.840770993139046,39.085279948790976,-20.85286739626947,-18.61708589091076,-8.102473026009715,29.104776839088835,0,0,0.6199367710112458,17.247330384912242,-12.955087825402343,-14.73389938964953,26.122643380686416,-38.10019778118171,-5.661998065508419,6.6314263636398145,39.085279948790976,0,0.03284132064574834,7.322242694840497e-05,-0.0005254611303319734,-8.407378085311574,-6.156086276793476e-10,-0.00016495048733456295,1600000.0,0.00011715588311744796,31.39156786541971
23,2021-04-22 02:01:19.223732,0.5147067308425903,1.8984404802322388,6.1701702440725725,0.6190959025188649,-0.060764512593426,0.29248973819122703,-0.06066217489673838,0.2926034657738222,0.02836744918281457,-3.7826621532440186,24.07565689086914,15.338892936706543,28.796309211706024,25.858437747809344,0,-2.866139628942248,26.016793790356342,21.891256315482686,-0.4537559679301222,-14.325929370223815,26.166108802594895,26.030307847430368,-2.2937620368982734,-1.3516578543860402,18.90745482921358,-9.203643478107846,15.571330979667897,4.999032530569139,14.28016220500183,-21.34834633001776,26.16610880259489,1.0,4.94,2.189095902518865,-8.781694683813157,9.795494685867311,36.687239266724305,38.974650770397474,-20.390985805043627,-18.851474082228123,-7.619517507150695,28.796309211706028,0,0,0.6190959025188649,17.565000191390624,-13.073016707135356,-14.325929370223815,26.166108802594895,-37.95598599643425,-5.778457375092767,6.70641186307312,38.97465077039748,0,0.031771509656675787,7.253973151932769e-05,-0.0005083441545068126,-8.133506472109001,-5.90002375797501e-10,-0.00015774523313868106,1600000.0,0.0001160635704309243,31.03118856392142
24,2021-04-22 02:01:29.223607,0.5127667784690857,1.8935261964797974,6.152748156582014,0.6183707080477688,-0.05194146537403655,0.29876691692108515,-0.05183929150702528,0.2988805253548248,0.02823439374574098,-3.778434991836548,24.037574768066406,15.854203224182129,29.04199255546328,25.868616033462068,0,-2.471595730526088,25.986421087595836,22.214321861895808,-0.38409375774129767,-13.903913317719049,26.209586592414674,26.057565460440085,-2.0149035421966,-1.9712623711231998,19.17686052486904,-8.737517003606087,15.583524837683456,4.58041626551277,14.083701959207334,-21.62432785785788,26.20958659241467,1.0,4.94,2.188370708047769,-8.358851257349318,9.953872808859073,37.47853108204001,39.66850476517703,-20.88430732361334,-18.71973234689021,-7.540202919368081,29.041992555463274,0,0,0.6183707080477688,17.87810139330345,-13.190796578273774,-13.903913317719049,26.209586592414674,-38.76240871691679,-5.528935768616437,6.3637103983509675,39.66850476517703,0,0.031314623848967924,7.175824492833272e-05,-0.0005010339815834867,-8.016543705335788,-5.752531066861694e-10,-0.00015364283318841342,1600000.0,0.00011481319188533234,30.665152232356537
25,2021-04-22 02:01:39.223522,0.5229528546333313,1.8919878005981445,6.134496543799536,0.6177504947693866,-0.04311574102879961,0.3050377807616007,-0.04301370120425079,0.30515127004648485,0.028101275356236695,-4.152591228485107,23.94708824157715,15.116813659667969,28.62210866414105,25.877293116511115,0,-2.0767212741683543,25.960490563323663,22.53333588784296,-0.3149914673357493,-13.46802433511381,26.253345031634797,26.073219101972807,-1.4439715553636414,-2.7093019687522086,19.44006110147597,-8.258516089975762,15.592275706661809,4.150355414735325,13.880685093841226,-21.89381777139507,26.253345031634797,1.0,4.94,2.1877504947693867,-8.302946643220434,10.066403147735922,37.01063143106304,39.24357570633574,-20.145731613985273,-18.988314602505465,-7.267634462151351,28.622108664141045,0,0,0.6177504947693866,18.186358256663834,-13.308148602233182,-13.46802433511381,26.253345031634797,-38.332089870649106,-5.680166000272283,6.200389872962459,39.24357570633574,0,0.030830159859902652,7.088039954084024e-05,-0.0004932825577584425,-7.892520924135079,-5.59425036487136e-10,-0.0001494381537431368,1600000.0,0.00011340863926534439,30.294635679438674
26,2021-04-22 02:01:49.223664,0.5286616086959839,1.8976337909698486,6.121084902678625,0.6172366500143971,-0.0342877789191199,0.3113034020524733,-0.03418567579674158,0.3114169211245713,0.027968100944274134,-4.6333909034729,23.432567596435547,15.197505950927734,28.311088332213412,25.88446602021272,0,-1.6815596319280266,25.93902897078603,22.847881497497337,-0.24650253045377457,-13.018464488975436,26.29765902265667,26.070701175423345,-0.9620435881628107,-3.3105713144667765,19.696648526084573,-7.766893913088603,15.597572434665382,3.709056773370424,13.671259315762006,-22.156408478023266,26.297659022656667,1.0,4.94,2.1872366500143974,-8.342447676843324,9.761308280673541,37.353914428951,39.49929740839207,-20.108099509514062,-18.81101239949439,-6.582390840411948,28.311088332213412,0,0,0.6172366500143971,18.48934042553906,-13.425004396637208,-13.018464488975436,26.297659022656667,-38.59743993505312,-5.386008002857183,6.436073648563488,39.49929740839207,0,0.030302655761802556,6.990810547335968e-05,-0.0004848424921888409,-7.757479875021454,-5.42310721310465e-10,-0.00014507049013656216,1600000.0,0.00011185296875737549,29.921158412010385
27,2021-04-22 02:01:59.226586,0.533338725566864,1.9018312692642212,6.093932826315061,0.6168276380343818,-0.025458007236196966,0.3175648531334027,-0.025353398264450967,0.3176801594383335,0.027834845867905987,-5.033451557159424,23.80072021484375,15.319047927856445,28.748619910171435,25.890133331349457,0,-1.286060551338585,25.922055390280327,23.157623594186145,-0.17866372970172192,-12.55534657069589,26.34282025085019,25.997535181866148,-0.6318004820118973,-4.20394711992959,19.946321056878023,-7.262810783503348,15.59936006980975,3.2566637102623144,13.455481471952071,-22.411790169569624,26.342820250850185,1.0,4.94,2.186827638034382,-8.290115267421738,10.345238742891679,37.73083809742607,39.992075706679,-20.30997465940366,-19.30572699701887,-6.4247164287977245,28.748619910171435,0,0,0.6168276380343818,18.786733326203933,-13.541274023828638,-12.55534657069589,26.34282025085019,-39.096707985607594,-5.764452973190231,6.130630141898166,39.992075706679,0,0.029743690831451987,6.884339480706103e-05,-0.0004758990533032318,-7.614384852851709,-5.242001026377755e-10,-0.00014061012390645996,1600000.0,0.00011014943169129765,29.546207946933333
28,2021-04-22 02:02:09.484622,0.5303708910942078,1.9341342449188232,6.112459201608794,0.6165249691090862,-0.016626865341435534,0.3238232659185163,-0.016294447481334483,0.3241000189226785,0.02769815683410091,-5.8223114013671875,23.09209632873535,14.599675178527832,27.933756249896017,25.894377062385782,0,-0.8802917731490064,25.909335712342855,23.469763520679965,-0.10984522369688476,-12.066731451933697,26.39029885436872,26.07123514147357,-0.16343741558316832,-4.088014191765462,20.194610806306642,-6.733368000216269,15.597670447164912,2.7815325363393724,13.22796518994264,-22.665654354239283,26.39029885436872,1.0,4.94,2.1865249691090862,-8.60384393770656,9.864131138792711,37.26532953276711,39.49724039491157,-19.44924010841002,-19.28832153615969,-5.475623229527217,27.933756249896017,0,0,0.6165249691090862,19.085294755921097,-13.659919098201849,-12.066731451933697,26.390298854368716,-38.53453486433112,-5.62840243795784,6.591108222406479,39.49724039491158,0,0.029860610474375448,6.765793706620116e-05,-0.00047776976759000714,-7.644316281440115,-5.171986698838121e-10,-0.00013932846360418003,1600000.0,0.00010825269930592185,29.16226037218479
29,2021-04-22 02:02:19.484751,0.550899088382721,1.9225366115570068,6.059140894805091,0.6163261526566742,-0.007794785614862088,0.3300797127475137,-0.007462321677664567,0.3303564955388898,0.02756487931884693,-6.565511226654053,22.672779083251953,14.667901039123535,27.79043306461396,25.89698405292605,0,-0.4845980312519682,25.901517683128137,23.768293160753164,-0.04354194201371373,-11.577344497423503,26.43801356547504,25.814161255406983,0.3273774521003211,-5.700040699147998,20.42897552055633,-6.205434992970179,15.592244771577104,2.3078970399475347,12.999929137125783,-22.90510892728851,26.43801356547504,1.0,4.94,2.186326152656674,-8.873408266601587,9.67284994612617,37.573009966412044,39.799905505945176,-19.421122758788623,-19.333199039666106,-4.621209322191003,27.79043306461396,0,0,0.6163261526566742,19.369938675880665,-13.77458280198868,-11.577344497423503,26.43801356547504,-38.79106143466929,-5.558616237677425,6.9561351752325,39.799905505945176,0,0.028468698219332823,6.641477021673836e-05,-0.00045549917150932513,-7.287986744149203,-4.840299649553044e-10,-0.00013113823045552103,1600000.0,0.00010626363234678138,28.79000416641511
30,2021-04-22 02:02:29.484751,0.5494412779808044,1.9163324832916262,6.043360118065969,0.61623849077343,0.0010378044504616652,0.33633532553452256,0.0013701840293386272,0.3366120785386847,0.027431588110581506,-6.827354907989502,22.185810089111328,14.591423034667969,27.417741893277814,25.898079444638892,0,-0.08883534548808879,25.898231805268782,24.060748425767382,0.021934019559262188,-11.07537332291477,26.487430795590836,25.711362816508323,0.6512579448338531,-6.331324929142223,20.655185709767835,-5.666155638398104,15.583387748742753,1.8240819309714296,12.766212175948258,-23.136130660484,26.487430795590836,1.0,4.94,2.1862384907734302,-8.651436838960931,9.41959791316307,37.72755369515197,39.83647188249446,-19.236538697830618,-19.09014064703045,-4.153875242452791,27.41774189327781,0,0,0.61623849077343,19.647649761184233,-13.888482810268325,-11.07537332291477,26.487430795590836,-38.88418845901485,-5.201657836762124,6.921498080461978,39.83647188249446,0,0.027775362103449906,6.508716488440314e-05,-0.00044440579365519846,-7.110492698483175,-4.62801810675519e-10,-0.0001263095100197097,1600000.0,0.00010413946381504502,28.422111462774847
31,2021-04-22 02:02:39.489773,0.5578281879425049,1.9092684984207153,6.011624578629629,0.6162551344437637,0.009870460606166214,0.34259111704481465,0.010207172479318202,0.34287105728086203,0.02729822403935809,-7.375688076019287,22.269960403442383,14.803779602050781,27.73993153329185,25.89766218683905,0,0.3071488684421358,25.899483530970617,24.346908984166852,0.0865653106827878,-10.560868804211434,26.53886622552072,25.469749087594273,1.0518559154986349,-7.382201642064884,20.873114444851762,-5.11562748093735,15.570962378237377,1.3302140229605262,12.526743598295365,-23.358566865537142,26.53886622552072,1.0,4.94,2.1862551344437637,-8.705902098979813,9.743216805147018,38.16234646758792,40.33717507438195,-19.46266548066102,-19.414888118232355,-3.710872298547283,27.739931533291852,0,0,0.6162551344437637,19.91829534083471,-14.00146354320149,-10.560868804211434,26.53886622552072,-39.380960821495734,-5.413424575030865,6.849996505664151,40.33717507438195,0,0.02706875677223266,6.367778762950138e-05,-0.00043310010835572257,-6.929601733691562,-4.4126170755503583e-10,-0.00012152923081312912,1600000.0,0.00010188446020720221,28.060309491613484
32,2021-04-22 02:02:49.489601,0.5628533363342286,1.912300705909729,5.999194208775656,0.6163788789767801,0.018702754893764644,0.3488482489797314,0.01903919402773954,0.3491281594285649,0.02716493256733539,-8.07601547241211,22.309566497802734,14.815038681030273,27.97184574444356,25.895732754505673,0,0.7028995879967707,25.90527055877981,24.626130955628145,0.1502368071198071,-10.034692684349176,26.592554488264025,25.31189479503252,1.5088389393215604,-8.012199520211915,21.082184480796997,-4.554781574145036,15.555044729629119,0.8270924292551018,12.282015194297818,-23.571847086976398,26.592554488264028,1.0,4.94,2.18637887897678,-8.90310790166721,10.027551303504916,38.38688576800667,40.66165410333359,-19.482896782487312,-19.823590593800322,-3.1410417512796567,27.971845744443556,0,0,0.6163788789767801,20.181208808815978,-14.113387543638442,-10.034692684349176,26.592554488264025,-39.66410559130329,-5.71020305016188,6.8936509330695195,40.66165410333359,0,0.026295482412055905,6.219111757133078e-05,-0.0004207277185928944,-6.731643497486311,-4.1864843220045546e-10,-0.00011657193596397818,1600000.0,9.950578811412925e-05,27.70721557254367
33,2021-04-22 02:02:59.489515,0.5751832127571106,1.9150010347366333,5.974509570990698,0.6166069128126578,0.027534254235092634,0.3551077936789724,0.027870477411766896,0.35538776370223363,0.027031652620634027,-8.541837692260742,21.97626304626465,14.669245719909668,27.768793611365826,25.892291807828624,0,1.0985750565712935,25.915586858426916,24.898229011931825,0.21293453057368675,-9.496931104506684,26.64880577903372,25.016441737929927,1.991859120204519,-8.964875317966023,21.28225111747746,-3.9837325121755307,15.535588566022401,0.31482796474937136,12.03204892934542,-23.775818205965287,26.64880577903372,1.0,4.94,2.1866069128126577,-8.856665657010113,9.944214116919229,38.445063925874955,40.68600325944796,-19.265658840125333,-19.829899876145543,-2.5914009702427627,27.768793611365826,0,0,0.6166069128126578,20.43623609552752,-14.224183747856058,-9.496931104506684,26.64880577903372,-39.70189493565285,-5.605716128289485,6.9055301342639215,40.68600325944795,0,0.02550679928516466,6.0629921918575747e-05,-0.0004081087885626345,-6.529740617002152,-3.958976637573931e-10,-0.0001116783145074577,1600000.0,9.70078750697212e-05,27.3648393852998
34,2021-04-22 02:03:09.224735,0.5679771304130554,1.9381613731384277,5.959574405347006,0.6169341536970582,0.03636452485384807,0.3613708532694513,0.03646680297610793,0.36148505744746845,0.026901921595338635,-8.802253723144531,21.34621810913086,14.290413856506348,27.154311377006536,25.887490900130214,0,1.4836532561955262,25.9299713090652,25.15597112947121,0.2729917393675493,-8.962632791439853,26.70629503526734,24.85357912890719,1.9127755897639964,-9.584732053484695,21.468028104521533,-3.4183740511109635,15.513371092735124,-0.19237710062921853,11.783970676950496,-23.965125091404577,26.70629503526734,1.0,4.94,2.186934153697058,-8.609876622515312,9.562247432180364,38.25553894791092,40.3615263785242,-18.754185760142075,-19.526451864924905,-2.086820644013631,27.154311377006536,0,0,0.6169341536970582,20.676554499701595,-14.330997940737475,-8.962632791439853,26.70629503526734,-39.430740259843674,-5.195453924187429,6.875812147426222,40.36152637852421,0,0.024035736992252765,5.9041545306115495e-05,-0.00038457179187604423,-6.153148670016709,-3.632914059760558e-10,-0.00010400440569529974,1600000.0,9.446647248978479e-05,27.044210701970204
35,2021-04-22 02:03:19.224764,0.5749365091323853,1.9161837100982666,5.929330084715978,0.6173657767722986,0.04519313111202793,0.3676385000908678,0.045295308702440945,0.36775276384331274,0.026768692464203225,-9.430416107177734,21.623659133911133,14.141621589660645,27.504560412398007,25.881070382653434,0,1.8790292159715563,25.949191797555766,25.413075071689164,0.3336300478079663,-8.403115888066395,26.768415161088328,24.478410927228854,2.415289716927827,-10.560389400841682,21.649537314222687,-2.828409694699238,15.486952021472606,-0.7216134368029089,11.524244632721533,-24.14992981210086,26.76841516108833,1.0,4.94,2.1873657767722987,-8.708802670374826,10.0994145011896,38.29155140176151,40.547309725456635,-18.672309806961657,-20.121604573483346,-1.7224167151039076,27.504560412398007,0,0,0.6173657767722986,20.91511399735983,-14.439310928349473,-8.403115888066395,26.768415161088328,-39.58742380432149,-5.682293645133873,6.680699172962488,40.547309725456635,0,0.023859880645387577,5.734374507682105e-05,-0.0003817580903262012,-6.10812944521922,-3.502630178028753e-10,-0.00010204360999187114,1600000.0,9.174999212291368e-05,26.7299141989834
36,2021-04-22 02:03:29.224542,0.5871140956878663,1.9145076274871826,5.913067821656362,0.6179098330381408,0.05401963737162924,0.3739118362701353,0.05412148357928784,0.3740260404481526,0.026635507242383134,-10.298052787780762,20.771480560302734,14.447101593017578,27.31708330561527,25.873143119266032,0,2.274165324206874,25.97289669620715,25.66213165892743,0.39315586725995133,-7.833184950606609,26.83390316906015,24.138978447831214,3.01220481283808,-11.326725075994002,21.82112214839392,-2.2294879285840534,15.45724331980533,-1.2589854028408254,11.260100067876424,-24.32454442540167,26.83390316906015,1.0,4.94,2.187909833038141,-9.039067384939937,9.51138049242631,38.77164601841925,40.93179244839881,-18.777386943459607,-19.833714084686974,-0.5065229594072935,27.31708330561527,0,0,0.6179098330381408,21.144744178703576,-14.54645545943298,-7.833184950606609,26.833903169060147,-39.92213112216318,-5.287258625253994,7.326661991199315,40.9317924483988,0,0.02296687236057444,5.558185698362195e-05,-0.00036746995776919104,-5.879519324307057,-3.2679460221607635e-10,-9.713623682918909e-05,1600000.0,8.893097117379511e-05,26.43378996717893
37,2021-04-22 02:03:39.230099,0.35644882917404175,1.8218821287155154,5.030577603970663,0.6185574537370786,0.06284360427124724,0.3801919639341677,0.06295021270972496,0.3803097425778505,0.026502294909675976,-10.29043197631836,20.5812931060791,13.445483207702637,26.650771749917265,25.86370563057486,0,2.669249261833581,26.00107998847027,25.90300822179859,0.45156049862741265,-7.252905993571111,26.903055350165445,9.723243702132859,-10.137547613901917,-22.94478257597729,21.98277585568244,-1.6217180375330824,15.424071559080327,-1.8043327863686645,10.991415991834652,-24.488926984752567,26.90305535016545,1.0,4.94,2.1885574537370784,-8.486099189949694,9.58987711424445,37.9344101924552,40.03747118859311,-17.758710436320165,-19.864684069594706,-0.5349442216825988,26.65077174991726,0,0,0.6185574537370786,21.365431634937767,-14.652237811177045,-7.252905993571111,26.903055350165445,-39.124142071257936,-5.2124462584176605,6.717961771888512,40.0374711885931,0,0.02207252196659404,5.375907086602183e-05,-0.0003531603514655046,-5.650565623448073,-3.0376915778405175e-10,-9.237943874438254e-05,1600000.0,8.601451338563493e-05,26.157930345531963
38,2021-04-22 02:03:49.229773,0.04571697860956192,1.5725512504577637,4.879861060773031,0.6193128777130432,0.07166459617287896,0.3864800149970922,0.07177077269675541,0.38659767449191956,0.026369220109907405,-10.928126335144043,20.45798110961914,13.33588981628418,26.75441820467181,25.85277200527804,0,3.0637698957928725,26.03368023025662,26.135165170031367,0.5087338221219954,-6.6633865516199355,26.97603360212359,4.155359168360015,-6.5256154247684055,-25.842904682191826,22.13402039341624,-1.0062484065453685,15.387624711795514,-2.3566818162984418,10.718845435733181,-24.642621456421622,26.976033602123593,1.0,4.94,2.1893128777130433,-8.5714445188456,9.73913567388596,37.9785112727058,40.133374432073964,-17.62432868686306,-20.129061112343674,0.05320285165178262,26.75441820467181,0,0,0.6193128777130432,21.576584799050213,-14.756580124676143,-6.6633865516199355,26.976033602123593,-39.200913485913276,-5.372480987667531,6.716589403271718,40.133374432073964,0,0.02111900688543855,5.188126465327514e-05,-0.0003379041101670168,-5.406465762672269,-2.8049428107207097e-10,-8.753519642114912e-05,1600000.0,8.301002344524022e-05,25.905336391996784
39,2021-04-22 02:03:59.229508,0.10725267231464387,1.5284028053283691,4.873229209576742,0.6201723054779105,0.0804821699917179,0.3927770617986086,0.08058795183501041,0.3928946319317943,0.02623621329084203,-11.673413276672363,20.50704574584961,13.676918983459473,27.273899897713076,25.840340651923686,0,3.457910839232146,26.070679937039213,26.358505392597703,0.5646699600716696,-6.0647300310581205,27.053107197603527,4.292030182901586,-4.526100033333719,-26.324199977251844,22.274815425630543,-0.38320326665032145,15.347845518363416,-2.915900122416824,10.442385515907763,-24.785574842199587,27.053107197603527,1.0,4.94,2.1901723054779105,-8.75751315425554,10.064660229941847,38.46249382565906,40.710623349194655,-17.967934609926598,-20.50693533748816,0.6960923415428937,27.273899897713076,0,0,0.6201723054779105,21.77815275731484,-14.85939841226655,-6.0647300310581205,27.05310719760353,-39.74608736724144,-5.647536925221608,6.760822372601014,40.710623349194655,0,0.020160399410505646,4.995162257159791e-05,-0.0003225663905680903,-5.161062249089444,-2.578034335350382e-10,-8.282929898958248e-05,1600000.0,7.992259611455665e-05,25.678217387653756
40,2021-04-22 02:04:09.477691,0.10148349404335022,1.5498977899551392,4.867472950612204,0.6211541349878409,0.08929587891955584,0.39908420646563036,0.08962018721067798,0.3993585764926821,0.026099982996928606,-12.0132417678833,19.76844024658203,13.340646743774414,26.70359644501989,25.826050768593092,0,3.861395368791742,26.11312452572603,26.578010800730254,0.6206710997980823,-5.442198299197285,27.136569662830347,4.025477607974833,-4.508571687403112,-26.454899818991652,22.40817902810749,0.2626566352364694,15.303526953022772,-3.4956231081666242,10.155131831596483,-24.920821207058804,27.136569662830347,1.0,4.94,2.191154134987841,-8.517618659716677,9.613308414985548,38.26146795083322,40.359700891689265,-17.4733835466942,-20.149304934838415,1.3298274968925927,26.70359644501989,0,0,0.6211541349878409,21.974647484736458,-14.962979604992595,-5.442198299197285,27.13656966283035,-39.44803103143066,-5.18632532984582,6.772025796089878,40.359700891689265,0,0.019653072533074932,4.7924850612446335e-05,-0.00031444916052919894,-5.031186568467183,-2.4111886469713625e-10,-8.01034774580955e-05,1600000.0,7.667976097991414e-05,25.474222072428557
41,2021-04-22 02:04:19.477584,0.12118262052536011,1.549031138420105,4.828364435826438,0.6222457947861411,0.0981052910417916,0.4054026106994989,0.09842921954593674,0.40567733817311724,0.025967142218286516,-12.848081588745117,19.75383949279785,14.19359016418457,27.509005379459076,25.810599685314035,0,4.254614311519405,26.15891433250468,26.782830461957104,0.6739845260093591,-4.8264422413716925,27.222578999876824,2.9953672368649142,-3.915591033132018,-26.772462146431483,22.526958357578696,0.8996554272231273,15.257639878851439,-4.067738084304591,9.872013573901476,-25.041279166183536,27.222578999876824,1.0,4.94,2.192245794786141,-8.780343504440527,9.881825918896375,39.234869330368106,41.40193095639868,-18.30125382398046,-20.425786710064994,2.1439969011827333,27.509005379459072,0,0,0.6222457947861411,22.15580487767516,-15.063020046379247,-4.8264422413716925,27.22257899987682,-40.45705870165562,-5.362766663685747,6.970439142554426,41.40193095639867,0,0.01811915663086694,4.5902221970095525e-05,-0.000289906506093871,-4.6385040975019365,-2.129176446927315e-10,-7.336609155574853e-05,1600000.0,7.344355515215284e-05,25.30681099374595
42,2021-04-22 02:04:29.483505,0.1143556758761406,1.5543670654296875,4.798965279256002,0.6234282320795492,0.10690994465660993,0.4117333468399139,0.10723878805104534,0.4120122743106893,0.025834318765461387,-13.11361026763916,19.732284545898438,13.386551856994629,27.21267348629752,25.793654176318864,0,4.647535296454613,26.20900952152376,26.978321799250843,0.7259780938199659,-4.202583726321419,27.313341085875624,2.0785375314069348,-3.548355264858921,-27.001989888122356,22.635065194994603,1.5431022541307375,15.208262896367287,-4.645630562849826,9.585289043051825,-25.15072467958026,27.313341085875624,1.0,4.94,2.1934282320795493,-8.467979704789334,10.146995502846613,38.53727653657489,40.74051890774047,-17.510389009904078,-20.705451596033903,2.2803835637820615,27.212673486297515,0,0,0.6234282320795492,22.32704915023555,-15.161126855864167,-4.202583726321419,27.31334108587562,-39.83743816013963,-5.544324740169737,6.48296729010348,40.74051890774047,0,0.017127750756949923,4.383981810462956e-05,-0.0002740440121111988,-4.384704193779181,-1.9222463429788569e-10,-6.898082140018683e-05,1600000.0,7.014370896740729e-05,25.17143902133373
43,2021-04-22 02:04:39.483568,0.12140937894582748,1.5507612228393555,4.779078189526692,0.6247229762363428,0.11570939295580267,0.41807754680100284,0.11603796826531315,0.418357040228842,0.025701680310858965,-14.015365600585938,19.090158462524414,12.974266052246094,27.003633137725107,25.7752400305505,0,5.039640153021442,26.263300849368477,27.164081859271487,0.7765563246725742,-3.571848947097688,27.40891256295065,1.4603484090459604,-2.8754480004737273,-27.218517028013167,22.731902409115694,2.1918164918849072,15.156023265085581,-5.228454164650405,9.296048123108424,-25.24866816734055,27.40891256295065,1.0,4.94,2.194722976236343,-8.786911435935533,9.79411033941599,38.22293421958665,40.42433809326354,-16.963871827724557,-20.74499715480024,3.3269127275461567,27.003633137725107,0,0,0.6247229762363428,22.487657143353175,-15.257642648377509,-3.571848947097688,27.408912562950654,-39.451528971077735,-5.487354506422733,6.898761674643845,40.42433809326355,0,0.016064021562867837,4.174363422038141e-05,-0.0002570243450058854,-4.112389520094167,-1.7166608389854077e-10,-6.443882260974658e-05,1600000.0,6.678981475261025e-05,25.071096906509396
44,2021-04-22 02:04:49.483539,0.12298254668712617,1.558333992958069,4.764129702244894,0.6261237655078798,0.12450318913116164,0.42443637228410697,0.12483139954730209,0.424716401881796,0.025569159623650972,-14.114662170410156,18.79302978515625,13.062686920166016,26.889318441806104,25.75535408432546,0,5.431105906350592,26.32176239112755,27.340074352747905,0.8257178585597502,-2.934372469649741,27.509489587892514,0.944867585256016,-2.498903247249464,-27.379458088018925,22.817533349886936,2.8456403455225416,15.100811906553176,-5.816018870198396,9.004233847588182,-25.335147812985227,27.509489587892514,1.0,4.94,2.19612376550788,-8.298643300211761,9.788795937568068,38.39783473315124,40.485574205214064,-16.982800222155305,-20.53826637634146,3.57764687101135,26.889318441806104,0,0,0.6261237655078798,22.637679023417512,-15.352425346779935,-2.934372469649741,27.509489587892514,-39.62047924557282,-5.1858410295615265,6.512019340661091,40.48557420521406,0,0.015005308586423283,3.9617139364622744e-05,-0.0002400849373827725,-3.84135899812436,-1.5218365477824038e-10,-6.0038780874573e-05,1600000.0,6.338742298339639e-05,25.0073084671913
45,2021-04-22 02:04:59.483620,0.12822037935256958,1.5601261854171753,4.743389550839559,0.6276307212987227,0.13329085658726472,0.43081095520335394,0.13361878402487332,0.43109158054532054,0.025436763897631432,-15.252338409423828,18.442792892456055,13.16525936126709,27.31473028750318,25.734002649789453,0,5.821889545880732,26.38433797281649,27.50616854793743,0.873433880887413,-2.2906421826407963,27.615199375357,0.2726268424315682,-1.9806860380920577,-27.542726698059703,22.89187087839679,3.5040786636500547,15.042703113020584,-6.40789250089666,8.710101015323048,-25.410082458357717,27.615199375357005,1.0,4.94,2.1976307212987227,-8.844445908527168,9.732691877133007,38.57534181962481,40.75544762488775,-17.00394124508145,-20.84634943362888,4.731827142225551,27.31473028750318,0,0,0.6276307212987227,22.776978261850616,-15.445434800969792,-2.2906421826407963,27.615199375357,-39.780919506932065,-5.400914632659088,7.022469324866348,40.75544762488774,0,0.013932940397009829,3.7464734816694545e-05,-0.00022292704635215726,-3.566832741634516,-1.336304428008407e-10,-5.569091166174985e-05,1600000.0,5.994357570671127e-05,24.981675652659515
46,2021-04-22 02:05:09.208692,0.11874761432409286,1.575646996498108,4.738746945058004,0.6292275570353868,0.14207196340951064,0.437202397685657,0.1421581973936942,0.437307695486724,0.02530813952666024,-15.551709175109863,18.372379302978516,13.295026779174805,27.49832206842237,25.71183983474471,0,6.201220577568456,26.449080217263194,27.658090225127285,0.9184249624341889,-1.6591012406687273,27.723024298219922,0.00870447555128373,-1.8040402319122375,-27.66426285505254,22.952810764580775,4.148454444080606,14.984154296136472,-6.987557657197813,8.422738359679393,-25.47150550618109,27.72302429821992,1.0,4.94,2.1992275570353867,-8.56415151791205,9.949640943299123,38.76653228535589,40.92901258952958,-17.11453603462352,-20.925649242179606,5.036623540778672,27.498322068422368,0,0,0.6292275570353868,22.901589575551768,-15.534820701439791,-1.6591012406687273,27.723024298219922,-40.01612561017529,-5.390828540739815,6.6957247814473995,40.92901258952958,0,0.012463961800065348,3.535019519773641e-05,-0.00019942338880104556,-3.190774220816729,-1.1279449153777667e-10,-4.984722578758723e-05,1600000.0,5.656031231637826e-05,24.995676829720924
47,2021-04-22 02:05:19.210039,0.13685208559036255,1.580139756202698,4.679840389882223,0.6309288132133899,0.15084602555567392,0.4436118614323577,0.15093324251791554,0.4437182017859105,0.025176004915860417,-16.22695541381836,17.74062728881836,13.663601875305176,27.653895834215813,25.68761659209545,0,6.590552531611309,26.519597071871694,27.804354200438844,0.963216681563245,-1.0044475625828977,27.839159717654585,-1.7130463651132377,-1.5091351829995086,-27.745392355046757,23.004930415026955,4.814513586202393,14.920202723593333,-7.586493349344864,8.124416670359416,-25.5236710959026,27.839159717654585,1.0,4.94,2.20092881321339,-8.640462064473496,9.616210618458943,39.187272971207776,41.26465138912626,-17.330871903873884,-20.702439402354788,5.982293594684348,27.653895834215813,0,0,0.6309288132133899,23.019655376630176,-15.623871646307276,-1.0044475625828977,27.839159717654585,-40.35052728050406,-5.078567756047512,6.986741157267246,41.26465138912626,0,0.01180938610587603,3.3159982919528375e-05,-0.00018895017769401647,-3.0232028431042637,-1.0024935463960701e-10,-4.732889205958984e-05,1600000.0,5.30559726712454e-05,25.04834482676891
48,2021-04-22 02:05:29.209582,0.13156206905841827,1.5659033060073853,4.670317832623617,0.6327634926643833,0.1596125813239393,0.4500405379320113,0.15969918764829635,0.45014675913670854,0.025044049654056346,-16.95155143737793,17.275989532470703,13.12647819519043,27.53396702745387,25.661955419731598,0,6.978978689231699,26.594023755517743,27.94040341007458,1.0064803948490337,-0.3451769978979333,27.96065615579864,-2.1166011534313247,-0.49187634097246286,-27.876089214329998,23.04517182985139,5.483641109543262,14.85422593665357,-8.188630011292766,7.825216493487568,-25.5638537398219,27.960656155798645,1.0,4.94,2.202763492664383,-8.762921426085164,9.450773038983135,38.69033193501233,40.780481706271544,-16.702845560437382,-20.81553359716826,6.771104157982917,27.53396702745387,0,0,0.6327634926643833,23.12624653623802,-15.711647483572875,-0.3451769978979333,27.960656155798645,-39.8290920966754,-5.103886113595383,7.11628115588085,40.78048170627154,0,0.010661810187072619,3.095697167054823e-05,-0.00017058896299316188,-2.7294234078905903,-8.44946831150002e-11,-4.289149097983566e-05,1600000.0,4.9531154672877165e-05,25.143180559433365
49,2021-04-22 02:05:39.209508,0.14316442608833313,1.5710536241531372,4.656742636357444,0.6347079711342447,0.16837113922527785,0.45648958888595903,0.16845747746471001,0.45659592923951176,0.024912254769403983,-17.494720458984375,17.315919876098633,13.91506576538086,28.276056661924212,25.634859770290515,0,7.366534166898414,26.67230513237543,28.066209411317757,1.048206169202578,0.318338427950023,28.087580640699645,-2.626302233607144,-0.06414939799027161,-27.96445257251236,23.073904918982716,6.1553805084278785,14.785749518844721,-8.793348786272189,7.5247943017465815,-25.592316700274967,28.087580640699645,1.0,4.94,2.204707971134245,-8.701371672712186,9.791125574352051,39.50738246565582,41.62226901896409,-17.48024467510856,-20.99138777303908,7.303291436646417,28.276056661924212,0,0,0.6347079711342447,23.22169749454136,-15.79758248483316,0.318338427950023,28.08758064069965,-40.70194216964992,-5.193805288205919,6.984953008696394,41.622269018964104,0,0.009547678324635456,2.8745806233132498e-05,-0.0001527628531941673,-2.4442056511066768,-7.026066204063998e-11,-3.861796535567169e-05,1600000.0,4.5993289973012e-05,25.279683213684688
50,2021-04-22 02:05:49.210758,0.14568307995796204,1.5835267305374146,4.632247511540548,0.6367636119962803,0.17712125245148128,0.4629601462083283,0.17720845452011597,0.463067499327153,0.024780617925662968,-17.50774383544922,16.6129150390625,13.841171264648438,27.822438108119652,25.60633601565191,0,7.753205196306176,26.754375996507587,28.181739458140704,1.088380686137228,0.985645540647993,28.21996648715729,-3.4486897938161243,0.133663452806653,-28.008127058475235,23.091117847597072,6.829287169316096,14.714877568083232,-9.400268559563052,7.223401906376029,-25.60905942129336,28.219966487157293,1.0,4.94,2.2067636119962803,-8.107475275886166,9.38951313268647,39.4502306859418,41.35474354160621,-17.2491803613008,-20.43633829284883,7.675279559970699,27.822438108119652,0,0,0.6367636119962803,23.305950888198563,-15.881677008469792,0.985645540647993,28.219966487157293,-40.55513124949937,-4.554661284379039,6.689634019322706,41.35474354160622,0,0.008427808907863366,2.653077206815624e-05,-0.00013484494252581386,-2.1575190804130218,-5.724064695513593e-11,-3.432874496396225e-05,1600000.0,4.244923530904998e-05,25.457940298643813
51,2021-04-22 02:05:59.210695,0.1457301527261734,1.5846526622772217,4.604105536137716,0.6389286037848222,0.1858624146199137,0.46945343117488825,0.18594934860362347,0.46956093322978243,0.02464918351946217,-18.571224212646484,16.46332550048828,12.972831726074219,28.00403217903544,25.576401391487984,0,8.1388411243791,26.84013865438092,28.286939575903702,1.1269795496238224,1.6560528174390348,28.35777749419452,-4.373607504442484,0.6438209850417558,-28.011079885405156,23.096851384488378,7.504669129138009,14.641685073626784,-10.008761960449934,6.921340732500626,-25.61412248924259,28.357777494194515,1.0,4.94,2.2089286037848224,-8.56246225219655,9.541984767987655,38.58695421531681,40.661016572975086,-16.369973313390382,-21.053889912116503,8.543038778550537,28.00403217903544,0,0,0.6389286037848222,23.37897830699128,-15.963846867134775,1.6560528174390348,28.357777494194522,-39.74895162038166,-5.090043044981728,6.8869859611115025,40.6610165729751,0,0.007305096746904027,2.4316966609205792e-05,-0.00011688154795046442,-1.8701047672074305,-4.547527517989966e-11,-3.001231168545709e-05,1600000.0,3.890714657472927e-05,25.67754466956291
52,2021-04-22 02:06:09.403697,0.13944169878959656,1.5988433361053467,4.589668575917379,0.641232606036798,0.19459413424154606,0.4759706352741942,0.1948492617284311,0.4762043755415132,0.024515413359640185,-19.293413162231445,16.184555053710938,14.426488876342773,29.022391270093642,25.54444395443741,0,8.530855738807373,26.931285089607893,28.383550146741054,1.1646964604618806,2.3421469269865174,28.503825866103814,-4.911032723155537,0.8891833080789187,-28.063485165636475,23.091179469949108,8.194112501124417,14.56441004677794,-10.6300376643152,6.612620311243622,-25.607491889674353,28.50382586610382,1.0,4.94,2.211232606036798,-8.663375497916245,9.571934742467317,40.03398076601712,42.0641845957553,-17.723141840688076,-20.93846718892626,9.474704750414007,29.022391270093642,0,0,0.641232606036798,23.442116941733133,-16.045235743599562,2.3421469269865174,28.503825866103817,-41.165258782421205,-4.893231445326698,7.13255782342749,42.06418459575529,0,0.006316146077153561,2.2066205680459916e-05,-0.00010105833723445699,-1.616933395751312,-3.567958488225294e-11,-2.6217287650880146e-05,1600000.0,3.5305929088735866e-05,25.942726120711455
