Date/Time,a_x,a_y,a_z,w_x,w_y,w_z,Lat ,Long,Polar_angle,B_x,B_y,B_z,B_total,B_theoretical,Pitch,Roll,Yaw,North_compass_only,Pitch_accel_only,Roll_accel_only,Yaw_accel_only,Pitch_gyro_only,Roll_gyro_only,Yaw_gyro_only
2021-04-22 01:57:39.240691,-0.0012341781985014677,0.004370266571640968,0.018520960584282875,0.26735159754753113,0.233254075050354,0.08154363930225372,-14.519172175317054,8.62767127086479,1.7920190440801964,2.465940475463867,26.40353775024414,19.874963760375977,33.13973223539015,27.705405876658833,24.746299579974995,87.68606418727208,349.6962651936112,350.9550571048135,24.38918484676817,88.4941848491113,350.6636914801045,24.319370068166887,88.83406872258948,350.8988856290793
2021-04-22 01:57:49.240552,-0.0012341781985014677,0.0031563034281134605,0.018520960584282875,0.26093751192092896,0.23203235864639282,0.08062733709812164,-14.023422531205544,9.012035897539025,1.7846120628991753,2.441890239715576,25.83500099182129,20.113826751708984,32.83254682153045,27.591817791026138,26.716129551701258,103.44407558367854,6.294345034812795,7.858942017516316,25.98822263147466,104.50545282975267,7.445553355737757,25.84061199822693,104.8963445559525,7.690111694064649
2021-04-22 01:57:59.240679,-0.0007405069191008806,0.004127473570406437,0.017546173185110092,0.2630755305290222,0.2326432168483734,0.07940560579299927,-13.526922420058977,9.394565764647467,1.7771888796680335,2.6717312335968018,25.832977294921875,19.6134033203125,32.544837586163666,27.48117764198565,26.68866877614322,107.21245487331466,6.566195101515765,8.193356617016603,25.882679133325038,108.36012472936272,7.763982751259276,25.75918419048933,108.6574360337442,7.942545240504565
2021-04-22 01:58:09.422684,-0.0017278495943173766,0.004127473570406437,0.017789868637919426,0.2642972767353058,0.23294863104820251,0.0778784453868866,-13.029701723954974,9.775331735402753,1.76975010638816,2.1774368286132812,25.70686149597168,19.48623275756836,32.331056682357335,27.373578635284865,26.587863721730297,108.26404445830815,7.032538646816256,8.659961843939671,25.766048530605193,109.43329771213347,8.270353339530157,25.60222302826785,109.8118882676381,8.495656520813137
2021-04-22 01:58:19.422501,-0.0009873425588011742,0.0033990959636867046,0.017789868637919426,0.2688787579536438,0.2335595190525055,0.07910017669200897,-12.531789471197506,10.15440723433846,1.762296350367617,1.9853969812393188,26.317564010620117,19.021469116210938,32.53263383074244,27.269112687347544,27.063982548393543,107.72450049501217,6.227401070097031,7.857579394776899,26.317307975875043,108.81946178123525,7.429839651778496,26.182584202043834,109.13851357774489,7.619454240874513
2021-04-22 01:58:29.422697,-0.002221520757302642,0.0038846812676638365,0.019252052530646324,0.26704615354537964,0.23294863104820251,0.07848931103944778,-12.03321639763784,10.531863124667229,1.7548282435421565,1.9657853841781616,25.766448974609375,18.867069244384766,31.99594516200774,27.167870651013086,26.8913887907092,107.38710281039188,5.033724767347045,6.706945663515864,26.112144461133493,108.49429013522928,6.249903982091284,25.984223555715616,108.80337668573986,6.43534233739666
2021-04-22 01:58:39.422581,-0.0009873425588011742,0.0048558516427874565,0.016815081238746643,0.2627701163291931,0.23203235864639282,0.07940560579299927,-11.534010677806302,10.907769415828051,1.7473463740781274,1.7470453977584839,25.634748458862305,18.50676918029785,31.665328068153578,27.069941199463017,27.020578403765406,107.24634627197625,4.226156923943764,5.883361026508903,26.29779071032173,108.35554167242964,5.464146213368323,26.136622151571526,108.74631045522442,5.699138871762612
2021-04-22 01:58:49.422715,-0.0012341781985014677,0.005341436713933945,0.01876465603709221,0.2649081349372864,0.2338649332523346,0.08001647144556046,-11.034201340006865,11.282196117259918,1.7398513470620907,0.9349541664123535,26.2276554107666,18.359159469604492,32.02846833786428,26.97541149830701,27.784823637923765,107.27221219836309,3.932185155179592,5.567238527379557,27.02470042292951,108.3701992583885,5.14632513156976,26.86000919411487,108.77174607969354,5.3836272476771585
2021-04-22 01:58:59.426949,-0.0007405069191008806,0.0036418887320905924,0.016083991155028343,0.26704615354537964,0.23233777284622192,0.0775730162858963,-10.533816558769852,11.655212384628179,1.7323437527561292,1.1027666330337524,25.840822219848633,18.446149826049805,31.768295998523946,26.884366604589612,27.547751186927208,107.09664218574791,3.411907234541507,5.142040895412869,26.759779583139515,108.29340744155004,4.714483859974765,26.630994658791632,108.60817670945008,4.903562279220935
2021-04-22 01:59:09.094560,-0.0014810138382017612,0.004127473570406437,0.016815081238746643,0.2624646723270416,0.2277562916278839,0.07971104234457016,-10.032886216172885,12.026888227371824,1.7248242151020208,0.6152474284172058,25.9923152923584,17.918231964111328,31.575972200001114,26.796889870368883,27.233769098329013,108.41679480890632,3.005061253657585,4.725668721627484,26.372489074179576,109.63779357588365,4.282209298254297,26.243745130966712,109.93803503141906,4.461741674361728
2021-04-22 01:59:19.094689,-0.0009873425588011742,0.0029135108925402164,0.019008353352546692,0.2646026909351349,0.23172691464424133,0.08032190799713135,-9.531435925425352,12.397289386061615,1.7172932748966816,0.6205969452857971,26.160112380981445,17.96819305419922,31.7425988537021,26.71306140158837,27.857023860092678,107.73894634510674,2.185256699469403,3.8699783535400547,27.1526862151445,108.84637955675427,3.4278770705946426,27.02810697977805,109.14690105004566,3.607395999767146
2021-04-22 01:59:29.094641,-0.0012341781985014677,0.004370266571640968,0.01803356595337391,0.2636864185333252,0.22958888113498688,0.0775730162858963,-9.029493861057578,12.766485870136545,1.7097515306204965,0.8220226764678955,25.74567413330078,16.715476989746094,30.707045264132326,26.632959543305713,27.387374930120725,107.07005908949823,2.043886084358714,3.8094274458874224,26.58230224019861,108.30087966850203,3.367192974253195,26.454671617820463,108.61222018143873,3.5514704108430815
2021-04-22 01:59:39.102737,-0.0007405069191008806,0.004127473570406437,0.01730247773230076,0.2636864185333252,0.23172691464424133,0.07910017669200897,-8.52708819759989,13.13454256639373,1.7021995679635638,-0.08887602388858795,25.782262802124023,17.414377212524414,31.112594039158804,26.556659854921328,28.233077000320655,107.55946263409714,1.1201758900395382,2.864968951138746,27.40959695058536,108.73534117141737,2.4028631113314245,27.273744487993806,109.0624116100126,2.6002901561774663
2021-04-22 01:59:49.102546,-0.0012341781985014677,0.004613059107214212,0.017789868637919426,0.2633809745311737,0.23142147064208984,0.07726757973432541,-8.024244548261672,13.501526922951223,1.6946379376223057,-0.11999467760324478,25.639080047607422,16.891706466674805,30.703527024864385,26.484234753543333,27.576060613489616,107.6901924548112,359.3547108878913,1.0256382812420397,26.816791172141613,108.80666200673065,0.5985549834558991,26.65081586776301,109.20378286545353,0.8365457747307061
2021-04-22 01:59:59.102744,-0.0007405069191008806,0.005341436713933945,0.017058778554201126,0.2646026909351349,0.23142147064208984,0.07879474759101868,-7.520991087573256,13.867506387927078,1.6870672355794618,-0.7913222312927246,25.033905029296875,17.15376853942871,30.35744335404231,26.415754132096403,28.378408057932894,107.19172524918366,359.67525817566406,1.399132555130495,27.560854904849876,108.35546654034877,0.9662020818062945,27.414362715078735,108.7122824527794,1.1802493247805044
2021-04-22 02:00:09.006596,-0.0009873425588011742,0.0048558516427874565,0.01657138578593731,0.26215922832489014,0.23111605644226074,0.07940560579299927,-7.017352574970379,14.232544140571116,1.6794879886553102,-1.2494171857833862,24.894044876098633,17.061948776245117,30.205704918782406,26.351284119443534,27.568779631834385,110.435272802996,0.20228501689321327,1.9883148114978442,26.718202514114356,111.62400575633418,1.5426273590730581,26.56762757876684,111.95960710120276,1.7381355476491493
2021-04-22 02:00:19.006515,-0.0014810138382017612,0.004613059107214212,0.01827726513147354,0.2630755305290222,0.22928345203399658,0.08062733709812164,-6.513356758096546,14.596708482775039,1.671900790559645,-1.8046129941940308,25.108074188232422,16.67582130432129,30.195281645883895,26.290888142423903,28.306960864119976,108.18514894320533,357.78269498572786,359.5149829309521,27.475638049670213,109.34419789441066,359.1112847067802,27.340704247522027,109.66581101185903,359.30119907714777
2021-04-22 02:00:29.008594,-0.0012341781985014677,0.0036418887320905924,0.016815081238746643,0.2646026909351349,0.23081061244010925,0.08001647144556046,-6.009029250161145,14.960060886241378,1.6643061802554013,-1.7287243604660034,24.71931266784668,15.812573432922363,29.39507416654695,26.23462570897189,28.782068822786062,108.10888305093297,357.1820573281836,359.00826048121723,27.96596537735438,109.35447049892235,358.5710618867137,27.835216773620118,109.66398052116148,358.7551877784814
2021-04-22 02:00:39.008575,-0.0017278495943173766,0.0033990959636867046,0.01827726513147354,0.2649081349372864,0.23203235864639282,0.07726757973432541,-5.504395664373562,15.322668799088184,1.6567047147114924,-1.938117265701294,24.503049850463867,15.633065223693848,29.12985545446789,26.182552877585387,28.6926377408885,107.93532111393378,356.432987707144,358.1799018621456,27.925501629163932,109.08764232880664,357.70024819914346,27.794437129180558,109.40214521932904,357.8835954493457
2021-04-22 02:00:49.008719,-0.0012341781985014677,0.0036418887320905924,0.019495747983455658,0.2639918327331543,0.2280617207288742,0.07818388193845749,-4.999482467716832,15.684595400565284,1.6490969543211134,-2.0554311275482178,24.510700225830078,16.051280975341797,29.37078214195138,26.13472196695004,28.815557240286633,107.46978225029488,355.9902136505653,357.8057366288929,28.033751589772173,108.63513546610412,357.334335328512,27.905289391862574,108.95090877181215,357.52261034675706
2021-04-22 02:00:59.008679,-0.0014810138382017612,0.004613059107214212,0.016815081238746643,0.26612985134124756,0.22989431023597717,0.08154363930225372,-4.4943139927398725,16.04590557746979,1.6414834286618365,-2.6747872829437256,24.15283203125,14.936112403869629,28.523696041708927,26.091181215089126,29.10728828011622,108.33629419934854,355.18485366581126,356.94353687708303,28.36795616095548,109.4484607320909,356.48423226860905,28.232976255030398,109.76919958532552,356.67414269027347
2021-04-22 02:01:09.223540,-0.0017278495943173766,0.004370266571640968,0.021445322781801224,0.2649081349372864,0.23081061244010925,0.08093277364969254,-3.988917133312541,16.406660801504227,1.6338647021574142,-3.2498273849487305,24.242292404174805,15.77459716796875,29.104776839088835,26.051975050509345,29.45901911670978,109.66199293611301,355.08606351720346,356.83494604734653,28.665282833262598,110.77437120471961,356.3749044187724,28.53475962577095,111.07983092478094,356.5524880565323
2021-04-22 02:01:19.223732,-0.0014810138382017612,0.0048558516427874565,0.017789868637919426,0.26674073934555054,0.23019975423812866,0.07848931103944778,-3.483316008540344,16.766927667013015,1.6262413069860275,-3.7826621532440186,24.07565689086914,15.338892936706543,28.796309211706024,26.017143578641576,29.490523364256465,108.77262717409647,353.52471386256343,355.45436951536533,28.697647684644704,109.87552514013511,354.94888813234707,28.531470889685586,110.27238645166953,355.18065139192436
2021-04-22 02:01:29.223607,-0.0014810138382017612,0.004127473570406437,0.015596598386764526,0.26154837012290955,0.22989431023597717,0.0778784453868866,-2.9775362316326683,17.12676593815138,1.6186137820134046,-3.778434991836548,24.037574768066406,15.854203224182129,29.04199255546328,25.98672270306731,29.37937228079826,108.49105945575187,352.5265017790468,354.3201461673589,28.634919227307307,109.6091272719371,353.83505972920227,28.473807017617755,110.00167873410524,354.06681487792997
2021-04-22 02:01:39.223522,-0.0014810138382017612,0.0048558516427874565,0.017058778554201126,0.2633809745311737,0.23050519824028015,0.07879474759101868,-2.471602988912079,17.486242209263736,1.6109826786933075,-4.152591228485107,23.94708824157715,15.116813659667969,28.62210866414105,25.96074401994798,29.962991454808343,108.40291586451285,351.48076139730375,353.2447251985776,29.194595173181906,109.55352270190403,352.76366131495524,29.02625833089777,109.95858707063164,353.0022210396436
2021-04-22 02:01:49.223664,-0.0014810138382017612,0.004370266571640968,0.017789868637919426,0.26643529534339905,0.2289780229330063,0.0778784453868866,-1.9655414667011406,17.84541795205261,1.6033485342792337,-4.6333909034729,23.432567596435547,15.197505950927734,28.311088332213412,25.939234620579875,30.290078968876497,108.726407283983,350.71233096473145,352.5724928578231,29.436844907569334,109.9703008450582,352.0546595045776,29.297232425839688,110.3087708693782,352.2530457641152
2021-04-22 02:01:59.226586,-0.0007405069191008806,0.004370266571640968,0.01657138578593731,0.2642972767353058,0.22989431023597717,0.07940560579299927,-1.4593762109921826,18.204354638220536,1.5957118753515087,-5.033451557159424,23.80072021484375,15.319047927856445,28.748619910171435,25.922217059392214,30.558058025867364,108.96690507484831,349.15663158408233,351.0227254964681,29.731567570255386,110.17902459590462,350.4625663147097,29.60068065519043,110.49209314670134,350.6455974552195
2021-04-22 02:02:09.484622,-0.0012341781985014677,0.0038846812676638365,0.019495747983455658,0.26704615354537964,0.23050519824028015,0.08032190799713135,-0.9531324081077693,18.563117154564626,1.5880732493478698,-5.8223114013671875,23.09209632873535,14.599675178527832,27.933756249896017,25.9097093603893,30.388013636290726,110.81772924557086,350.21811469808864,352.02895067254167,29.538204914852322,111.9666353658587,351.51970372085657,29.403752641040622,112.27399387850927,351.697271563804
2021-04-22 02:02:19.484751,-0.0014810138382017612,0.0033990959636867046,0.019983140751719475,0.2636864185333252,0.23050519824028015,0.07910017669200897,-0.4468348441640687,18.92176697278741,1.5804331872456772,-6.565511226654053,22.672779083251953,14.667901039123535,27.79043306461396,25.901724873466552,31.56419270193443,110.15323380159866,347.1632007474528,349.0733152290392,30.77178147518623,111.27802252392719,348.5638445886588,30.59942848167013,111.68422753424619,348.8008726434258
2021-04-22 02:02:29.484751,-0.0014810138382017612,0.0036418887320905924,0.016327690333127975,0.26185381412506104,0.23019975423812866,0.0775730162858963,0.05949197486722921,19.280368979686006,1.5727922249528197,-6.827354907989502,22.185810089111328,14.591423034667969,27.417741893277814,25.898272286191443,31.480666318574343,109.79776343643452,346.2590288428629,348.09205780947667,30.630761974487562,110.98391457826644,347.5947346605351,30.49508709681443,111.30679811090046,347.7799821974305
2021-04-22 02:02:39.489773,-0.0009873425588011742,0.0048558516427874565,0.017789868637919426,0.2636864185333252,0.22989431023597717,0.07879474759101868,0.5658225825190824,19.638981231868357,1.565150895307263,-7.375688076019287,22.269960403442383,14.803779602050781,27.73993153329185,25.89935558647736,31.961200862536007,109.39302691678706,344.44071637258963,346.4040627872463,31.147814124846697,110.53803299905884,345.8324809678747,31.001750529445975,110.8879162694819,346.0361136664685
2021-04-22 02:02:49.489601,-0.0012341781985014677,0.0048558516427874565,0.019252052530646324,0.2633809745311737,0.23111605644226074,0.07848931103944778,1.0721324461393744,19.997670323678868,1.5575097392812107,-8.07601547241211,22.309566497802734,14.815038681030273,27.97184574444356,25.904974048130143,32.24912065680873,109.56675960851551,343.7285086421703,345.7381543478895,31.36016129104781,110.86291777711966,345.1876129262562,31.211987167193552,111.21956976501022,345.3950526015386
2021-04-22 02:02:59.489515,-0.0014810138382017612,0.005584229249507189,0.019495747983455658,0.2639918327331543,0.22958888113498688,0.07910017669200897,1.5783967395912974,20.356497726820074,1.5498692880456229,-8.541837692260742,21.97626304626465,14.669245719909668,27.768793611365826,25.915122238178345,32.95557053775773,109.72147705359464,342.31418307828307,344.2606281898385,32.124664364847334,110.867350569891,343.71685463189897,31.989016807930884,111.19429806508117,343.9051988058094
2021-04-22 02:03:09.224735,-0.0014810138382017612,0.004370266571640968,0.019739443436264992,0.26582443714141846,0.22989431023597717,0.08184906840324402,2.084590596717405,20.71552662054179,1.54223007796276,-8.802253723144531,21.34621810913086,14.290413856506348,27.154311377006536,25.929790029297763,32.542692432619624,111.04846669611223,341.45846112057075,343.4867762946125,31.696541277481767,112.19458609921871,342.85211170184033,31.55842802227494,112.51639729215303,343.0368017245448
2021-04-22 02:03:19.224764,-0.0017278495943173766,0.004613059107214212,0.019008353352546692,0.2624646723270416,0.22958888113498688,0.07879474759101868,2.5906890446385438,21.074818476546557,1.5345926419374842,-9.430416107177734,21.623659133911133,14.141621589660645,27.504560412398007,25.948962639496248,32.94143546127039,109.78923936035034,339.7255891941724,341.7635366424912,32.118121043622466,110.99510925831609,341.1958198564162,31.947861503086973,111.4022909856864,341.43172092997014
2021-04-22 02:03:29.224542,-0.0012341781985014677,0.0036418887320905924,0.019008353352546692,0.2636864185333252,0.23019975423812866,0.08123820275068283,3.096667110475561,21.43443647408419,1.5269575172001946,-10.298052787780762,20.771480560302734,14.447101593017578,27.31708330561527,25.972620660620546,33.6391597755547,109.69320690061996,338.7938301555249,340.8981397218196,32.79377701669846,110.88379766541239,340.2732149788038,32.62753704248953,111.28242799594184,340.50456031618137
2021-04-22 02:03:39.230099,-0.0014810138382017612,0.004370266571640968,0.017058778554201126,0.2627701163291931,0.22989431023597717,0.08032190799713135,3.6024996079058926,21.79444379240452,1.5193252440151372,-10.29043197631836,20.5812931060791,13.445483207702637,26.650771749917265,26.000740109165207,20.42301352405224,104.38615674570923,288.2308652205531,289.0741476962395,20.18297164831402,105.73485272940911,288.7793020901484,20.066402517296705,106.01491780613631,288.9589019143739
2021-04-22 02:03:49.229773,-0.0012341781985014677,0.004613059107214212,0.01876465603709221,0.2639918327331543,0.23019975423812866,0.08001647144556046,4.108161564050386,22.154905318304646,1.5116963631233937,-10.928126335144043,20.45798110961914,13.33588981628418,26.75441820467181,26.033292500764507,2.6193899264177607,90.10054971924993,279.5954433925276,279.82794303187484,2.204391474429194,91.03964608861332,279.8570464679283,2.113035986732981,91.33499712870301,280.1083564482497
2021-04-22 02:03:59.229508,-0.0009873425588011742,0.0033990959636867046,0.017058778554201126,0.2649081349372864,0.22928345203399658,0.07574041932821274,4.613627579143063,22.515882523487114,1.5040714120913714,-11.673413276672363,20.50704574584961,13.676918983459473,27.273899897713076,26.070244952074948,6.145125465128704,87.57103014127073,279.21546630862144,279.48628330921247,5.776348183914083,88.45525277084224,279.4399473058831,5.698778579283894,88.75957867950132,279.6917012485006
2021-04-22 02:04:09.477691,-0.0014810138382017612,0.0033990959636867046,0.01730247773230076,0.26124295592308044,0.22958888113498688,0.08032190799713135,5.118872039974539,22.877438587201738,1.4964509360885694,-12.0132417678833,19.76844024658203,13.340646743774414,26.70359644501989,26.111560225075866,5.814575898924997,88.80260204108323,278.8856569641691,279.20079506228427,5.41303206582771,89.80088199960478,279.1733650225775,5.34452911043389,90.0401503564195,279.36717164027664
2021-04-22 02:04:19.477584,-0.0014810138382017612,0.004127473570406437,0.016815081238746643,0.2646026909351349,0.22928345203399658,0.08001647144556046,5.6238701871090715,23.23964010379293,1.488835474343531,-12.848081588745117,19.75383949279785,14.19359016418457,27.509005379459076,26.157196898572074,6.943252706438557,88.75294656581724,276.6449041239197,276.98176905378466,6.592760268518884,89.64755791311634,276.95530207075086,6.52164690020165,89.90643574303816,277.1652279348912
2021-04-22 02:04:29.483505,-0.0014810138382017612,0.005098644178360701,0.017789868637919426,0.2627701163291931,0.22958888113498688,0.08062733709812164,6.128595553563626,23.602548544963216,1.481225579727212,-13.11361026763916,19.732284545898438,13.386551856994629,27.21267348629752,26.20710937025682,6.552097591068859,89.05867266325617,274.96045653118944,275.28534130925027,6.17965377893041,90.0043669953578,275.2649258738211,6.096433900309329,90.30792792282985,275.50573785338827
2021-04-22 02:04:39.483568,-0.0012341781985014677,0.004370266571640968,0.01827726513147354,0.2639918327331543,0.22989431023597717,0.08001647144556046,6.633022526128816,23.966228797509714,1.4736217989806986,-14.015365600585938,19.090158462524414,12.974266052246094,27.003633137725107,26.261248093935173,6.9562450069003905,88.85207310124163,273.82101022290203,274.1171877158813,6.563278183853346,89.74795486372636,274.056754202105,6.495410436052338,89.99856133456329,274.25723391462327
2021-04-22 02:04:49.483539,-0.0014810138382017612,0.004613059107214212,0.017546173185110092,0.26215922832489014,0.23050519824028015,0.08123820275068283,7.137125491595254,24.330747455776834,1.4660246823685765,-14.114662170410156,18.79302978515625,13.062686920166016,26.889318441806104,26.319559658696253,7.046380878942934,89.2859608682667,272.96452499155,273.10707786971733,6.740368340445675,89.99037876793761,273.061827866466,6.654514143239084,90.306206715159,273.31554890356443
2021-04-22 02:04:59.483620,-0.0017278495943173766,0.005341436713933945,0.017546173185110092,0.2679624557495117,0.23111605644226074,0.07848931103944778,7.640877129206258,24.696169406561687,1.4584348031603045,-15.252338409423828,18.442792892456055,13.16525936126709,27.31473028750318,26.38198676077074,7.3464865844686,89.38864593224866,271.77620184956197,272.088840098441,6.9429893172686885,90.41764125146777,272.03680088715464,6.872202944257968,90.6724619490226,272.23935697718053
2021-04-22 02:05:09.208692,-0.0012341781985014677,0.0036418887320905924,0.01584029383957386,0.2639918327331543,0.233254075050354,0.08093277364969254,8.144252679526089,25.062557829114095,1.4508526845234233,-15.551709175109863,18.372379302978516,13.295026779174805,27.49832206842237,26.4484689568715,6.803737128017761,90.27792290180598,271.51020013233585,271.91331789715,6.393668791949474,91.16396919188588,271.87483661136616,6.319265833773232,91.42182249343222,272.0791548901979
2021-04-22 02:05:19.210039,-0.0014810138382017612,0.004613059107214212,0.01803356595337391,0.26582443714141846,0.23081061244010925,0.07910017669200897,8.647224394911243,25.429979317778468,1.4432789087740072,-16.22695541381836,17.74062728881836,13.663601875305176,27.653895834215813,26.518941914990013,7.841046921890883,90.53533907124543,268.13510313510903,268.58666743170613,7.458136271736214,91.49957053675446,268.5332416920183,7.378791671695468,91.77124131099173,268.7448409525053
2021-04-22 02:05:29.209582,-0.0024683563970029354,0.0033990959636867046,0.019252052530646324,0.26063206791877747,0.23172691464424133,0.07910017669200897,9.149765808378685,25.798502174446508,1.435714039394811,-16.95155143737793,17.275989532470703,13.12647819519043,27.53396702745387,26.593338211272673,7.537951301056044,89.71965055980583,267.5895007940193,268.0951123775186,7.104000354781161,90.67596583606682,268.03644105254824,7.034314922887282,90.92042513665075,268.2304389155441
2021-04-22 02:05:39.209508,-0.0024683563970029354,0.004127473570406437,0.017789868637919426,0.2642972767353058,0.23203235864639282,0.07940560579299927,9.651848745398093,26.16819299346262,1.4281586624668268,-17.494720458984375,17.315919876098633,13.91506576538086,28.276056661924212,26.67158711302436,8.202717391274106,90.01474205270705,266.81169934190575,267.2676622803283,7.798931121694938,91.03931140934398,267.2131232198057,7.721274432152832,91.3050467491925,267.41908757422743
2021-04-22 02:05:49.210758,-0.0029620276764035225,0.0036418887320905924,0.017546173185110092,0.2630755305290222,0.23019975423812866,0.07848931103944778,10.153447592760074,26.539116661623915,1.420613313553215,-17.50774383544922,16.6129150390625,13.841171264648438,27.822438108119652,26.75361551097021,8.347025628058136,90.72939840594383,265.4082320712515,265.83231168662843,7.929306626345788,91.65603651026112,265.7614757947462,7.833327100581476,91.98559313771423,266.0158593601942
2021-04-22 02:05:59.210695,-0.0017278495943173766,0.004127473570406437,0.017058778554201126,0.26704615354537964,0.2326432168483734,0.08062733709812164,10.654533322160658,26.91134318836939,1.4130785989454082,-18.571224212646484,16.46332550048828,12.972831726074219,28.00403217903544,26.839346817473345,8.349722699006644,90.7939095426546,263.79581565350827,264.21177417396206,7.929841088648342,91.69992730586762,264.19157047439717,7.835476048849092,92.02427932917318,264.4398956620513
2021-04-22 02:06:09.403697,-0.0012341781985014677,0.004370266571640968,0.01584029383957386,0.2649081349372864,0.23172691464424133,0.07910017669200897,11.155077759069519,27.28494087559075,1.4055551033746505,-19.293413162231445,16.184555053710938,14.426488876342773,29.022391270093642,26.928702089643085,7.989420828778362,91.60697526145292,262.9686387638847,263.4776312910232,7.572542794107573,92.56136442436797,263.4014063798859,7.4776996410664225,92.87197410706347,263.64150118959014
2021-04-22 02:06:19.403527,-0.0009873425588011742,0.0036418887320905924,0.017546173185110092,0.26032665371894836,0.2283671498298645,0.07971104234457016,11.655053582729975,27.659978025179687,1.398043394681514,-19.641408920288086,15.793830871582031,14.755464553833008,29.205372316981894,27.02160020898095,8.376536314140822,91.06474020362394,261.163768105898,261.6219508558008,7.960243114417715,92.04448985892725,261.5889268911638,7.883055146607401,92.3035452737675,261.7907521509485
2021-04-22 02:06:29.403523,-0.0014810138382017612,0.0038846812676638365,0.01657138578593731,0.26185381412506104,0.23019975423812866,0.07971104234457016,12.154431764838057,28.03652635412249,1.3905440770123019,-20.11720085144043,15.745932579040527,14.049247741699219,29.15506002375104,27.117957410257066,8.12752981511696,91.4630290246949,260.8022052119942,261.2798403406532,7.708992044477856,92.49316498550539,261.21541116621245,7.615290386801744,92.79815342251398,261.4505267680118
2021-04-22 02:06:39.403538,-0.0012341781985014677,0.0038846812676638365,0.017789868637919426,0.2649081349372864,0.22989431023597717,0.08001647144556046,12.65318327708979,28.414652456763566,1.3830577377361355,-20.81886100769043,15.865720748901367,14.750794410705566,30.04549890227411,27.21768809883335,8.486226590890288,91.28922803107476,259.6215113913091,260.0590806302968,8.084967491304024,92.26584945973819,259.9953071540164,8.007894782935955,92.5220908366404,260.19414079094463
2021-04-22 02:06:49.403559,-0.0017278495943173766,0.005098644178360701,0.018520960584282875,0.2636864185333252,0.23050519824028015,0.07971104234457016,13.151278237407555,28.7944280500892,1.3755849904066966,-21.492719650268555,15.293986320495605,14.131575584411621,29.92564859839274,27.32070447195541,8.725112457111484,91.62418733816135,258.6345627166206,259.08323784319873,8.299305657648194,92.5419052154226,259.03918312305217,8.200403664692764,92.86861365399182,259.29068434867037
2021-04-22 02:06:59.407658,-0.0014810138382017612,0.004370266571640968,0.01803356595337391,0.26185381412506104,0.22928345203399658,0.07879474759101868,13.648686763713732,29.17592826618026,1.368126455183468,-22.105712890625,14.569404602050781,14.11859130859375,30.004411565636506,27.426916924484015,8.772432861454979,91.04102578682566,257.2933526202511,257.7566102007072,8.350087260353593,91.9801563071349,257.71864117911105,8.252331885405079,92.30537576446505,257.97067515948453
2021-04-22 02:07:09.217595,-0.0007405069191008806,0.0048558516427874565,0.019983140751719475,0.26612985134124756,0.22989431023597717,0.07879474759101868,14.145379827704351,29.55922140692845,1.3606827157643486,-22.647003173828125,14.539938926696777,14.550792694091797,30.594478991705163,27.53623485763997,8.39175141429067,92.53224049774704,257.4364041022278,257.92134753329873,7.945254264284121,93.56180955285642,257.86628937839924,7.859836772297588,93.82307794898774,258.06704912867343
2021-04-22 02:07:19.217527,-0.0014810138382017612,0.0038846812676638365,0.019983140751719475,0.2624646723270416,0.23050519824028015,0.07971104234457016,14.641324985980855,29.944382604414642,1.3532544300711664,-22.576570510864258,14.21137809753418,16.15989112854004,31.189852272002938,27.648565238952838,9.400655732066179,91.62326526262339,255.78515805905303,256.2442833750613,8.956528657701623,92.61384076776118,256.1885285408665,8.878537288890188,92.86567667264872,256.3853199512329
2021-04-22 02:07:29.217590,-0.0012341781985014677,0.0048558516427874565,0.01657138578593731,0.2639918327331543,0.23172691464424133,0.08001647144556046,15.13649321023927,30.3314869907197,1.3458421942799716,-23.539400100708008,14.1995210647583,16.109241485595703,31.862790474328587,27.76381476018599,8.860812947994004,92.3359340308117,253.84321916480252,254.38819312848867,8.458883636095434,93.30411334566101,254.32177636899945,8.350168368849987,93.64058212455417,254.57980042527504
2021-04-22 02:07:39.217519,-0.0012341781985014677,0.004370266571640968,0.018520960584282875,0.26674073934555054,0.23019975423812866,0.08184906840324402,15.630850349533745,30.720602867735327,1.338446670113964,-24.026229858398438,13.714207649230957,15.375496864318848,31.65035728833879,27.881888080826773,9.046965484954471,91.79909482242704,252.8632441132566,253.40280173693094,8.578842248488368,92.80705315900249,253.3330655055051,8.49381749237911,93.08221415990563,253.54684359633734
2021-04-22 02:07:49.218573,-0.0017278495943173766,0.0036418887320905924,0.016083991155028343,0.2636864185333252,0.23050519824028015,0.08001647144556046,16.124367375560308,31.111815612826145,1.3310684748474386,-24.327152252197266,13.106400489807129,14.975981712341309,31.43036905206785,28.002689683325816,9.557089262174275,92.24630828852278,252.2542781072366,252.7936103346683,9.136076401734687,93.2601542481628,252.71531587621246,9.036651899307751,93.58311291287768,252.96002106360652
2021-04-22 02:07:59.226678,-0.0017278495943173766,0.004370266571640968,0.019008353352546692,0.26674073934555054,0.2289780229330063,0.07879474759101868,16.61700842982582,31.505190112789276,1.3237082828574451,-24.94827651977539,12.640830993652344,16.06554412841797,32.2538186523612,28.12612240294025,9.905494650415687,92.12202616638524,250.9255331061023,251.55539949098255,9.440482565116524,93.04468227041642,251.47371725869837,9.360769134860597,93.30744647797597,251.67462044294513
2021-04-22 02:08:09.462750,-0.0009873425588011742,0.004127473570406437,0.018520960584282875,0.2649081349372864,0.23203235864639282,0.08093277364969254,17.108744484026303,31.900811744989337,1.31636670369722,-25.42997169494629,13.260371208190918,16.4826717376709,33.078684565692804,28.25208958951857,8.651911612229163,93.18999454500843,251.39432313978614,251.96533378458838,8.207551457659182,94.07694242005878,251.90473634627205,8.099964025400434,94.4018271981196,252.1549944774613
2021-04-22 02:08:19.462671,-0.0019746851176023483,0.004370266571640968,0.017058778554201126,0.26674073934555054,0.23172691464424133,0.08062733709812164,17.599537972121322,32.29875905660179,1.3090444702666533,-25.957571029663086,12.49142837524414,16.43501853942871,33.165360106671905,28.380492049474082,9.573947022819512,92.22470440017804,250.26741022862575,250.8485568741563,9.110091800811022,93.17580824210232,250.77645056708846,9.030323729041735,93.43538958150864,250.9755096002593
2021-04-22 02:08:29.462522,-0.0017278495943173766,0.004613059107214212,0.019495747983455658,0.26215922832489014,0.233254075050354,0.08032190799713135,18.089356450712327,32.69910376461292,1.3017422050327179,-26.346702575683594,11.953563690185547,16.66038703918457,33.385699300782726,28.511232193223044,9.522315915336094,92.36811105199163,249.1338105622679,249.65797976974218,9.03912613533459,93.29035051448344,249.58176851898318,8.936200307184373,93.61563144351612,249.83127532936373
2021-04-22 02:08:39.462690,-0.0019746851176023483,0.004127473570406437,0.017789868637919426,0.26032665371894836,0.2277562916278839,0.08032190799713135,18.578165768853456,33.101931246387345,1.294460592298641,-27.194040298461914,12.115798950195312,17.7683048248291,34.67017548706625,28.644211203530492,9.767311385769865,92.7736603641503,248.43059477589088,249.02855051696883,9.325743071023126,93.72969560265533,248.95847960627367,9.241999829156892,93.99452935753341,249.1592325263587
2021-04-22 02:08:49.462628,-0.0009873425588011742,0.004370266571640968,0.018520960584282875,0.2639918327331543,0.2289780229330063,0.08001647144556046,19.065928360504284,33.50732346419511,1.2872003608660922,-27.918907165527344,11.42668342590332,17.457645416259766,34.85403642209899,28.779329387431137,10.064702944874098,92.67021714917045,247.07116856500494,247.71156710158533,9.627296776652836,93.64698201180647,247.61678456647303,9.545191926413759,93.90414546424662,247.811991372952
2021-04-22 02:08:59.462747,-0.0012341781985014677,0.0031563034281134605,0.019252052530646324,0.2627701163291931,0.23050519824028015,0.07848931103944778,19.55261007471896,33.915358965211674,1.279962167041733,-27.938615798950195,11.14261531829834,18.192588806152344,35.15244538240072,28.916488470581733,9.755496866053036,92.56738182102674,245.59364155318025,246.1751706893043,9.320135485714546,93.48593298136674,246.09423977782882,9.217487987773008,93.81705372213979,246.34584345628457
2021-04-22 02:09:09.192716,-0.0012341781985014677,0.004370266571640968,0.019252052530646324,0.26185381412506104,0.228672593832016,0.07910017669200897,20.038173345457043,34.32611971170707,1.2727467298051192,-28.425251007080078,11.347001075744629,18.35589599609375,35.688769186508345,29.05558921722897,9.10936097056983,93.6871093731803,246.64176823226455,247.19403683798427,8.635191309140973,94.64895027247984,247.1616412507509,8.527754994817611,94.97252365422003,247.40773979673565
2021-04-22 02:09:19.192569,-0.0014810138382017612,0.0031563034281134605,0.018520960584282875,0.26124295592308044,0.22928345203399658,0.08093277364969254,20.5225806066781,34.739691081045926,1.2655547720237623,-29.23569107055664,10.899751663208008,17.890865325927734,35.966835846417105,29.19653260952468,10.19135172755906,92.59610276648665,245.55235305964754,246.14830755529863,9.708305381530126,93.63614933178283,246.07288860648336,9.629889687216501,93.88878436880327,246.26453688440475
2021-04-22 02:09:29.192618,-0.0014810138382017612,0.004127473570406437,0.01827726513147354,0.26124295592308044,0.228672593832016,0.08062733709812164,21.0057942923417,35.15616186568746,1.2583870201249483,-29.118919372558594,11.161483764648438,17.816242218017578,35.91529857908954,29.339219964358183,10.017932370758789,92.57438959511518,244.70926182925783,245.2164443562663,9.56469297026779,93.52637453144239,245.14799220040442,9.46046342975975,93.86213297066188,245.40314074703943
2021-04-22 02:09:39.192734,-0.0009873425588011742,0.0031563034281134605,0.01827726513147354,0.2642972767353058,0.2280617207288742,0.08001647144556046,21.487775128860115,35.57561402790169,1.2512442058774875,-30.5470027923584,10.211944580078125,18.88840675354004,37.33865425253186,29.483553001890076,10.227483428268426,92.97970668084209,244.00080728778744,244.5887089904071,9.773380862621067,93.950160448685,244.52904045781787,9.69209136621416,94.20146359881728,244.71841428274564
2021-04-22 02:09:49.192692,-0.0009873425588011742,0.0048558516427874565,0.016327690333127975,0.2642972767353058,0.22745086252689362,0.07940560579299927,21.96848384264561,35.998132945053264,1.2441270642851965,-30.81589698791504,10.466408729553223,19.07364845275879,37.722265098523536,29.629433985341485,10.083876993421617,92.6134036356543,243.2192697221979,243.83770237040753,9.627975526701606,93.54601815549535,243.73728492923,9.521559471885514,93.8878418026978,243.99546607985647
2021-04-22 02:09:59.197577,-0.0012341781985014677,0.004127473570406437,0.019495747983455658,0.2646026909351349,0.228672593832016,0.07940560579299927,22.447879452563175,36.42381082469597,1.2370363714669796,-30.89907455444336,9.653631210327148,18.979074478149414,37.52533373486762,29.776765022308968,10.470463992897045,92.79316738441986,242.66564190883332,243.227028817095,10.003660690488047,93.73677850882463,243.1254229230019,9.897073880942706,94.08375894885044,243.3836040736284
2021-04-22 02:10:09.234650,-0.0014810138382017612,0.0036418887320905924,0.017789868637919426,0.2627701163291931,0.23050519824028015,0.07971104234457016,22.925922685025075,36.85273645928902,1.22997285879881,-31.3042049407959,9.856225967407227,19.850181579589844,38.3552883712094,29.92544992064772,9.157182540043674,94.5152356590985,244.0994625401591,244.77453111696647,8.645914706137892,95.57489852769095,244.71064152747016,8.558442180984832,95.8262563193366,244.89848539002386
2021-04-22 02:10:19.235591,-0.0009873425588011742,0.0036418887320905924,0.019495747983455658,0.2594103515148163,0.2280617207288742,0.07971104234457016,23.402567436254415,37.2850020563862,1.222937376944985,-32.0726318359375,9.269262313842773,20.877302169799805,39.37555945781018,30.075390818945465,10.296427357750536,92.81908795232006,241.72423693553048,242.2551612000939,9.80418843087241,93.75246745334815,242.21743123511874,9.704643546361352,94.07076792904908,242.4546846861283
2021-04-22 02:10:29.236628,-0.0014810138382017612,0.0033990959636867046,0.016327690333127975,0.26185381412506104,0.23142147064208984,0.08123820275068283,23.877774432663465,37.720692993352145,1.2159306348283545,-32.200801849365234,8.444236755371094,20.5738468170166,39.134127650593,30.2264937791584,10.662553671793546,93.14947103266275,240.6126919500026,241.27773380910838,10.186125779070354,94.11189249804173,241.1626451215937,10.104069593929113,94.36995070526315,241.35513351278297
2021-04-22 02:10:39.236605,-0.0009873425588011742,0.006312606856226921,0.017058778554201126,0.26154837012290955,0.228672593832016,0.08001647144556046,24.351499278022626,38.15990830792981,1.2089534575806673,-32.037330627441406,8.89162540435791,19.75481605529785,38.674336625753156,30.378663384301426,10.170819325140355,93.34019723504618,239.91408654131536,240.55779088945405,9.724255580789398,94.30738617246584,240.46215458069554,9.642522975860086,94.5599938887296,240.6537823680494
2021-04-22 02:10:49.236565,-0.0012341781985014677,0.004127473570406437,0.01876465603709221,0.26154837012290955,0.22928345203399658,0.07910017669200897,24.823695868554996,38.60273679257842,1.2020066654711936,-33.17988204956055,8.643799781799316,20.881498336791992,40.14544582240968,30.531805352968494,10.256663703950014,92.69552983023453,239.89761212503728,240.47100650585986,9.776664476064552,93.69073620362958,240.38909887733308,9.696828956177212,93.9419369009243,240.57858198528754
2021-04-22 02:10:59.236621,-0.0012341781985014677,0.004370266571640968,0.01803356595337391,0.2646026909351349,0.23019975423812866,0.08032190799713135,25.294319808030966,39.049280900135514,1.1950910770894385,-33.200950622558594,8.443670272827148,20.808500289916992,40.08231997069623,30.685826543936948,10.513880090356231,93.05806261100047,239.54969594909517,240.2298598470234,10.019881535993182,94.1440148777083,240.09806451679881,9.936940841354424,94.40268780195503,240.2929434741976
2021-04-22 02:11:09.477750,-0.0009873425588011742,0.004127473570406437,0.01730247773230076,0.26521357893943787,0.22745086252689362,0.07971104234457016,25.763323285126354,39.49963283815489,1.1882075350188983,-33.77537155151367,8.219555854797363,21.418243408203125,40.829866183787196,30.840634442276826,10.033563258674363,94.16345359608616,239.8854953694497,240.4663756376026,9.543588539506098,95.1651554793819,240.38860710371284,9.45746156161953,95.42186813933682,240.58078130620032
2021-04-22 02:11:19.480766,-0.0019746851176023483,0.0033990959636867046,0.01876465603709221,0.2636864185333252,0.23081061244010925,0.08062733709812164,26.23066019606426,39.95388822928493,1.181356853151245,-33.751338958740234,7.306369781494141,22.297842025756836,41.10632165369841,30.996138394918816,10.808511399262134,93.03968257194396,238.46384613522488,239.14948784486745,10.317705104562418,94.02127637832318,239.0910077651938,10.23418128252327,94.28517439728496,239.28859147750393
2021-04-22 02:11:29.480690,-0.0009873425588011742,0.0038846812676638365,0.01876465603709221,0.26124295592308044,0.23050519824028015,0.08001647144556046,26.696279314425908,40.41214952636318,1.174539941968505,-34.54646682739258,7.645020484924316,21.807228088378906,41.56272254520426,31.15224681336231,10.420761560080509,93.62300804781972,237.80122216308527,238.4886670426687,9.92728893028355,94.50417075264308,238.39031231862054,9.845304462128595,94.75695605382525,238.58195376635274
2021-04-22 02:11:39.480547,-0.0014810138382017612,0.004613059107214212,0.01827726513147354,0.2649081349372864,0.23019975423812866,0.07971104234457016,27.1601345364344,40.87451576713261,1.1677576064520876,-34.90725326538086,7.554478168487549,22.64641761779785,42.29003076200468,31.308871816626723,10.503017528254972,93.600762121693,237.69756721224115,238.30274929346098,10.015120040368037,94.52554924474522,238.2179046835911,9.920564609045673,94.81458919004181,238.43470854822561
2021-04-22 02:11:49.480624,-0.0017278495943173766,0.004127473570406437,0.017789868637919426,0.2636864185333252,0.2277562916278839,0.07971104234457016,27.622171220576373,41.34108940443076,1.1610107973186619,-35.504783630371094,7.237037658691406,23.447040557861328,43.15933370239604,31.465923507055642,10.558157645424485,93.54737736314019,237.37634341557546,238.0695939559534,10.078657021348434,94.48545603431724,237.95356270233324,9.99861318069141,94.73552292020975,238.13965803645942
2021-04-22 02:11:59.480534,-0.0012341781985014677,0.0038846812676638365,0.01803356595337391,0.2597157955169678,0.2289780229330063,0.08001647144556046,28.08233984798035,41.811972891095195,1.1543003678634338,-36.06553649902344,6.638210296630859,23.380325317382812,43.490554961409025,31.62331560641661,10.902236108826694,93.21793684890295,236.77521846672263,237.50477829272836,10.436225962135063,94.15029182155554,237.38490847279465,10.35346199864108,94.40689519848375,237.57558003366472
2021-04-22 02:12:09.359763,-0.0009873425588011742,0.004613059107214212,0.01827726513147354,0.2636864185333252,0.23050519824028015,0.07940560579299927,28.540585777132968,42.28726526486887,1.1476272408356274,-36.09336471557617,6.8105244636535645,23.877283096313477,43.80911854880351,31.780961625378662,9.653294184181195,95.12060898561506,237.3362911862825,237.96264685392936,9.147167775173143,96.09897211251686,237.86620458284878,9.053895565641096,96.36539047128238,238.06455327634595
2021-04-22 02:12:19.359574,-0.0004936712794005871,0.0038846812676638365,0.017789868637919426,0.2600212097167969,0.23081061244010925,0.07848931103944778,28.996857781615454,42.7670792238731,1.1409923042188834,-36.276634216308594,6.436356544494629,23.576566696166992,43.74100333566345,31.93877732876336,10.179958118249832,93.7318880933789,235.81281749191118,236.4174531579974,9.683444346724926,94.73332359929701,236.31792364141194,9.5921144722381,95.01232316651368,236.52827980747
2021-04-22 02:12:29.359574,-0.0017278495943173766,0.004370266571640968,0.01657138578593731,0.26185381412506104,0.23019975423812866,0.07910017669200897,29.451096097272565,43.25151380585084,1.134396547851378,-36.80911636352539,6.024374961853027,24.47014045715332,44.609325427956946,32.096677514815475,11.043743968051018,93.36091319879883,235.3515748172602,235.99959584495434,10.536592176893816,94.457766447422,235.88121500625965,10.449119651740755,94.72942356128092,236.08461803974265
2021-04-22 02:12:39.366625,-0.0012341781985014677,0.0048558516427874565,0.01876465603709221,0.2636864185333252,0.22989431023597717,0.07940560579299927,29.903244375043656,43.7406817089234,1.1278409258942836,-36.85551452636719,5.461607933044434,24.574190139770508,44.63237539324062,32.25457929200647,10.601198936252967,93.65518506899966,234.171318128682,234.8179048166504,10.11965181674685,94.64721540443065,234.74051877335418,10.025593281686605,94.93751210453453,234.95571071334462
2021-04-22 02:12:49.366699,-0.0014810138382017612,0.0036418887320905924,0.01876465603709221,0.26185381412506104,0.22958888113498688,0.07910017669200897,30.35324797341536,44.23468880102291,1.1213263350627718,-37.6428108215332,5.670774936676025,24.20737648010254,45.11248132144353,32.41240266282109,10.425543546273165,93.21760216963362,233.7055948499355,234.3097797235365,9.96613733873529,94.19418944735122,234.19556530023556,9.859524915980561,94.52464765977477,234.44251761986652
2021-04-22 02:12:59.367527,-0.0009873425588011742,0.0031563034281134605,0.01803356595337391,0.2624646723270416,0.23081061244010925,0.08001647144556046,30.80104542068515,44.7336443651761,1.1148537860078036,-37.732669830322266,5.819788932800293,25.006834030151367,45.63952304700383,32.570066399431894,10.59210795446768,93.40760437196504,234.22512635896334,234.82798617586536,10.12724357200932,94.43219421916947,234.73580594282686,10.021156220047036,94.76427118642633,234.98368716818499
2021-04-22 02:13:09.072506,-0.0014810138382017612,0.005827021785080433,0.017058778554201126,0.26582443714141846,0.23294863104820251,0.07940560579299927,31.2465752451505,45.237657684409676,1.1084242774442592,-38.095550537109375,5.601964473724365,26.102943420410156,46.51899216341061,32.72749108011894,10.393279440181317,94.61166426980074,234.4300593548204,235.03491358696007,9.91243839148065,95.65596604294984,234.9213138806844,9.820681630170698,95.93355176100832,235.1282003106441
2021-04-22 02:13:19.072652,-0.0012341781985014677,0.0038846812676638365,0.01730247773230076,0.2649081349372864,0.22928345203399658,0.07818388193845749,31.68977597510887,45.746841456844955,1.102038803996892,-38.78707504272461,5.28462028503418,25.809993743896484,46.88837999960033,32.88459892348109,10.389538204063442,94.00832633965683,233.34830765445213,234.0367770624111,9.933611124134043,94.95106319984784,233.95123577324586,9.8248497531117,95.27756673274196,234.19594779082905
2021-04-22 02:13:29.072636,-0.0012341781985014677,0.0036418887320905924,0.017058778554201126,0.2646026909351349,0.23019975423812866,0.0830707997083664,32.130582723763155,46.26130838060324,1.0956984061419792,-38.57210922241211,5.25906229019165,26.847923278808594,47.28928346277407,33.04131257005489,10.399631516109428,93.2849819857958,233.15080590441204,233.73295658775058,9.908203674195242,94.20161386297902,233.66387605448506,9.82162419627616,94.4671989386658,233.8623476913873
2021-04-22 02:13:39.072714,-0.0007405069191008806,0.005341436713933945,0.01803356595337391,0.2630755305290222,0.23019975423812866,0.07879474759101868,32.56893401941082,46.781171153805836,1.089404052697555,-39.224002838134766,5.209090232849121,26.968448638916016,47.884801781878764,33.19755799450127,10.938121068952295,93.84236640320385,232.3488460732042,232.96861743849115,10.501284367753081,94.83558519155044,232.89211931978699,10.393126614698637,95.16327717736013,233.132323412518
2021-04-22 02:13:49.073716,-0.00024683563970029354,0.0036418887320905924,0.01803356595337391,0.2630755305290222,0.22958888113498688,0.08123820275068283,33.00476156016016,47.306545889668634,1.0831568243236793,-39.17818832397461,4.161579132080078,27.06501007080078,47.79920450545106,33.353259970683375,11.0394204583064,93.90190516219886,231.80774482677742,232.55009076690942,10.557254352906751,94.8339527763388,232.45307475993857,10.46636075675316,95.1127201171237,232.65998851065496
2021-04-22 02:13:59.073774,-0.0014810138382017612,0.004370266571640968,0.01827726513147354,0.2624646723270416,0.23019975423812866,0.07910017669200897,33.437993629024895,47.83754528631294,1.0769578385025984,-39.4538459777832,4.520938396453857,28.198162078857422,48.705042768163985,33.50834390594896,11.116722831785312,93.69245058111125,231.71432149931,232.41130132297477,10.648391274549525,94.65822566937271,232.3038351265738,10.5427000735591,94.98787108928504,232.5459516722724
2021-04-22 02:14:09.270661,-0.0014810138382017612,0.004127473570406437,0.019008353352546692,0.2639918327331543,0.23081061244010925,0.08123820275068283,33.8685687543025,48.37428545695463,1.0708080307488095,-39.788673400878906,4.0555739402771,27.709348678588867,48.65587544355232,33.662741336400664,9.922807472414375,94.37685602651403,232.1810010045403,232.84552376926916,9.41216460081765,95.33817100124749,232.72380979825954,9.323627419927714,95.60014973705249,232.91904392549517
2021-04-22 02:14:19.274646,-0.0009873425588011742,0.0038846812676638365,0.01876465603709221,0.26093751192092896,0.228672593832016,0.08001647144556046,34.29640838881752,48.916882514809615,1.0647086152171035,-39.49147415161133,3.9860317707061768,27.455015182495117,48.26222993828095,33.816378387127806,11.152361905100792,93.66250703178991,231.0816683972484,231.7689630126701,10.694588966548197,94.60337925033751,231.67428293039538,10.587876652276858,94.93676761391501,231.91982823105732
2021-04-22 02:14:29.274681,-0.0009873425588011742,0.0038846812676638365,0.016327690333127975,0.2627701163291931,0.2283671498298645,0.07848931103944778,34.72144423067824,49.46545257309377,1.0586606153653193,-39.95240783691406,3.7572989463806152,28.065860748291016,48.969426450409316,33.96918753899302,10.949758003750704,93.38959316312372,230.52988473495975,231.25041505088274,10.45790583633433,94.3695750448588,231.14971074176006,10.370365863063217,94.64255038522754,231.3550125678323
2021-04-22 02:14:39.274629,-0.0009873425588011742,0.0038846812676638365,0.01730247773230076,0.26063206791877747,0.23172691464424133,0.07818388193845749,35.14359773270922,50.020111745023,1.0526652154712175,-40.70377731323242,3.8323726654052734,29.120058059692383,50.1942461763459,34.12109878338618,11.558194670110025,93.16728416601813,230.5891571165771,231.3050429038645,11.04695757205551,94.05137019180626,231.18733142370849,10.962451056549526,94.31458519185104,231.3859669851508
2021-04-22 02:14:49.274589,-0.00024683563970029354,0.0036418887320905924,0.019252052530646324,0.26215922832489014,0.22958888113498688,0.08001647144556046,35.56279717792417,50.580979558907764,1.0467234747357457,-40.60282897949219,4.138142108917236,29.527545928955078,50.374496621187554,34.27204683752077,10.9422652862312,93.36544161421855,230.2290558831557,230.8656021930442,10.470189931556598,94.32884662683801,230.76491154429988,10.389685906904244,94.5770966824113,230.9541624258226
2021-04-22 02:14:59.274555,-0.0019746851176023483,0.004370266571640968,0.014621810987591743,0.26185381412506104,0.22928345203399658,0.07879474759101868,35.978964019147625,51.14816871286938,1.0408365385562393,-41.3048095703125,2.8020031452178955,28.958030700683594,50.522332263339976,34.421965795329456,11.409585975469826,93.17482469486184,230.0715790416519,230.7865905647255,10.928145577669492,94.18145114454914,230.66576451830798,10.842140689414338,94.45247988100442,230.86577977796262
2021-04-22 02:15:09.497676,-0.0014810138382017612,0.0048558516427874565,0.01657138578593731,0.2633809745311737,0.22958888113498688,0.08093277364969254,36.39201629410956,51.721805565407486,1.0350056252963518,-41.8098030090332,3.3508877754211426,28.949460983276367,50.964295028577304,34.570789433775474,10.20714312492013,94.73037978776473,230.38463393207024,231.05247616873575,9.715168014098696,95.77477035337304,230.95756386002927,9.62443236606966,96.03793071190447,231.15386349677541
2021-04-22 02:15:19.497775,-0.0017278495943173766,0.0048558516427874565,0.017789868637919426,0.26063206791877747,0.2289780229330063,0.07940560579299927,36.801875455634516,52.301999399548805,1.029231840355917,-41.857666015625,3.630242109298706,29.957002639770508,51.601016164480235,34.71845594805829,10.951626060488703,93.2064006593948,229.90508635044364,230.57807854974334,10.488063682840876,94.14721823642904,230.48961393961335,10.381262576110325,94.47890588290319,230.7381918442668
2021-04-22 02:15:29.000669,-0.0017278495943173766,0.004370266571640968,0.016327690333127975,0.26551899313926697,0.2283671498298645,0.07848931103944778,37.208456126357866,52.88886632850922,1.023516405199449,-41.903053283691406,2.8355963230133057,29.824501037597656,51.511235115697154,34.864902098272786,11.376398086292735,93.65872993717889,229.3926855589093,230.1078336857663,10.917658675972582,94.61412313790194,229.98708960161883,10.832410231168007,94.87914130788761,230.18348486101337
2021-04-22 02:15:39.000661,-0.0012341781985014677,0.0048558516427874565,0.016815081238746643,0.2633809745311737,0.23019975423812866,0.08001647144556046,37.61167634400957,53.48252929569381,1.0178604803516702,-42.20116424560547,2.922966480255127,30.545576095581055,52.17771761719936,35.0100677194225,11.01748872088149,93.78792979551886,228.4210228475833,229.0691121771691,10.520151911561596,94.70961601268789,228.96519767913654,10.415293139876267,95.03745826265933,229.20891248910092
2021-04-22 02:15:49.000725,-0.0014810138382017612,0.004370266571640968,0.017546173185110092,0.2624646723270416,0.228672593832016,0.08123820275068283,38.011450731225004,54.08310099922386,1.0122652456295342,-42.36425018310547,2.218461513519287,30.71649169921875,52.37512890076636,35.153893658928816,11.036539826023947,93.37403399219443,228.55091938521858,229.19216486525607,10.57157896714356,94.37332481871314,229.09557233001374,10.489115531973058,94.63190895050066,229.29028736287248
2021-04-22 02:15:59.000605,-0.0012341781985014677,0.0038846812676638365,0.01730247773230076,0.26063206791877747,0.22958888113498688,0.0775730162858963,38.407687080450366,54.69069755231527,1.0067319883394725,-42.455047607421875,2.574289321899414,30.357189178466797,52.25530564142291,35.29631948726648,11.010782328890183,93.95122595819552,228.04556734890767,228.71338226481652,10.510465849544872,94.88332821384883,228.61935788070213,10.404235063610017,95.20209314241332,228.8550813693376
2021-04-22 02:16:09.209520,-0.0014810138382017612,0.004613059107214212,0.015596598386764526,0.26063206791877747,0.22928345203399658,0.07971104234457016,38.800296599226456,55.305428237994754,1.0012619052460858,-42.95356369018555,2.239931583404541,31.96731185913086,53.59043715705338,35.43728857284786,11.051524407289309,94.48587950604578,228.66558460100475,229.31058668508575,10.556786484948605,95.49501946534765,229.22628849034945,10.468619841821143,95.75197118192354,229.4188315230521
2021-04-22 02:16:19.209655,-0.0017278495943173766,0.005341436713933945,0.019739443436264992,0.26185381412506104,0.23172691464424133,0.07910017669200897,39.18918707999947,55.92740916947821,0.9958562485662278,-42.86760711669922,1.8942137956619263,31.58679962158203,53.28175763006821,35.57674431160901,11.079885060270495,94.21328665627057,227.89392348895507,228.5436930450767,10.59880666249617,95.1463383082185,228.44960035907062,10.482645635281763,95.49702754096364,228.707617585157
2021-04-22 02:16:29.209673,-0.0009873425588011742,0.004127473570406437,0.016083991155028343,0.2639918327331543,0.23111605644226074,0.08062733709812164,39.57426631521562,56.55675304488694,0.9905162454398001,-42.98807144165039,2.0400819778442383,31.5841064453125,53.3825065044495,35.714632182160535,10.96872970794406,93.81969017515942,227.35712526170542,227.9094963202627,10.527695855499875,94.95256584146524,227.80733035065762,10.421650338446257,95.27528544955918,228.04820380192731
2021-04-22 02:16:39.216545,-0.0012341781985014677,0.005098644178360701,0.017789868637919426,0.2627701163291931,0.23081061244010925,0.07848931103944778,39.95543868222652,57.19356573215308,0.9852431499728098,-43.310855865478516,1.931912899017334,32.163272857666016,53.98183624300233,35.85089838379088,10.902971207936117,93.98570475312575,226.59763554675666,227.26192608505377,10.437717504695065,94.9564248983463,227.16803830472278,10.349916276688198,95.22231733254573,227.36763009264888
2021-04-22 02:16:49.216635,-0.0014810138382017612,0.004613059107214212,0.016815081238746643,0.2636864185333252,0.23142147064208984,0.08062733709812164,40.33260514328921,57.83795309920876,0.9800382574111276,-43.74156951904297,2.134172201156616,31.630088806152344,54.021681877358674,35.9854894461786,11.288525995073227,93.74431220747915,227.74852242190383,228.43830322618342,10.822590980462468,94.77196880962093,228.31425333047764,10.7359397855571,95.03503354550398,228.51047100495376
2021-04-22 02:16:59.216575,-0.0017278495943173766,0.0048558516427874565,0.017058778554201126,0.26093751192092896,0.2280617207288742,0.07910017669200897,40.70566666066072,58.49002442908071,0.9749028518977466,-43.7548713684082,1.6675869226455688,32.374183654785156,54.45509509609073,36.118353556357086,11.188836822815952,93.97663426190798,226.84607684762673,227.5102990840321,10.724998676280387,95.01741848763452,227.38600330151624,10.639739132418411,95.28078375184104,227.58047244756483
2021-04-22 02:17:09.186635,-0.0009873425588011742,0.0038846812676638365,0.015596598386764526,0.26063206791877747,0.23172691464424133,0.07971104234457016,41.07452419659809,59.1498753444173,0.9698381727622095,-44.208099365234375,0.7430251240730286,31.93879508972168,54.54351260786813,36.2494414089182,9.769497900077916,95.75980540890154,228.23719513626156,228.88891812648583,9.259663552124191,96.76611766988702,228.79742091236434,9.165844073684896,97.02649131123708,228.99134364327935
2021-04-22 02:17:19.186861,-0.0012341781985014677,0.0036418887320905924,0.016083991155028343,0.2630755305290222,0.23203235864639282,0.08093277364969254,41.43907188316918,59.817608298056086,0.964845572866672,-45.110939025878906,0.524401843547821,33.796966552734375,56.36937790375841,36.37870208228945,10.954224093694247,93.98141539432697,226.77677774830778,227.51234814078313,10.468512266341714,94.90454278141088,227.38645409400144,10.385840510401527,95.15868046004871,227.57692074919643
2021-04-22 02:17:29.186641,-0.0012341781985014677,0.0048558516427874565,0.017789868637919426,0.26704615354537964,0.22989431023597717,0.08032190799713135,41.799203852441856,60.49331891264545,0.9599263742525463,-44.45719909667969,0.2951993942260742,33.16523742675781,55.46586939530819,36.50608674715178,11.085842692774039,93.97296645032367,226.05678018714005,226.7407416702468,10.591512020462597,94.932348481522,226.63294762476565,10.483003366439542,95.26373559967269,226.88041903877354
2021-04-22 02:17:39.191472,-0.0014810138382017612,0.0048558516427874565,0.01584029383957386,0.2636864185333252,0.22989431023597717,0.08001647144556046,42.15481765157857,61.177095980644594,0.9550818099880445,-44.6890754699707,0.5237542986869812,33.8310661315918,56.05291090145335,36.63155014625315,10.9616715612105,94.59797657070403,225.5084116194364,226.17551619567155,10.504658481203068,95.56489230055689,226.0810273586936,10.418777390126621,95.81771175268491,226.2677510702234
2021-04-22 02:17:49.190686,-0.0012341781985014677,0.0036418887320905924,0.019495747983455658,0.2633809745311737,0.2280617207288742,0.07848931103944778,42.505803997552604,61.86903512470191,0.9503132265742725,-44.784156799316406,0.290462851524353,33.25767517089844,55.783313156058306,36.75504532335897,11.072937050337298,93.82778394932588,225.83944356775024,226.47350368878085,10.60355108264839,94.86770074102783,226.39895900417935,10.497496174084663,95.18518159402836,226.63505132303
2021-04-22 02:17:59.190609,-0.0012341781985014677,0.0031563034281134605,0.017546173185110092,0.26215922832489014,0.23019975423812866,0.07879474759101868,42.85205019224264,62.56920464670909,0.9456219623215195,-45.43994903564453,0.5948449373245239,34.42235565185547,57.0091341583457,36.87652674218411,11.38595181339429,93.85438070595391,225.34280685282027,225.97853354000839,10.89496195736063,94.84343307890678,225.88194100476605,10.790239789458703,95.16796951731993,226.12330622965598
